uid,date,region_unit,county,county_en,area,address,total_tests,positive_tests,male,female,median_age,positivity,lat,long
EL300,25/09/20,Περιφέρεια Αττικής,Περιφέρεια Αττικής,Attica,Αθήνα,Πλατεία Κυψέλης,1600,20,0,0,0,1.3,38.0027791,23.7416351
EL300,28/09/20,Περιφέρεια Αττικής,Περιφέρεια Αττικής,Attica,Αθήνα,Πλατεία Κουμουνδούρου,422,10,0,0,0,2.4,37.9846598,23.7248199
EL300,04/10/20,Περιφέρεια Αττικής,Περιφέρεια Αττικής,Attica,Αθήνα,Πλατεία Αγίου Παντελεήμονα,487,20,12,8,41,4.1,37.9652788,23.730299
EL124,05/10/20,Π.Ε. Πέλλας,Π.Ε. Πέλλας,Pella,Πέλλας,"Δήμους Έδεσσας, Αλμωπίας, Σκύδρας και Πέλλας",1479,20,0,0,0,1.4,40.8016803,22.0439798
EL300,06/10/20,Περιφέρεια Αττικής,Περιφέρεια Αττικής,Attica,Καλλιθέα,Πλατεία Δαβάκη,615,11,0,0,37,1.8,37.9529855,23.7052539
EL300,07/10/20,Π.Ε. Πειραιώς,Περιφέρεια Αττικής,Attica,Πειραιώς,Δημοτικό Θέατρο Πειραιά,585,9,0,0,0,1.5,37.9433016,23.6468891
EL300,08/10/20,Π.Ε. Πειραιώς,Περιφέρεια Αττικής,Attica,Πειραιώς,Δημοτικό Θέατρο Πειραιά,770,4,2,2,49.5,0.5,37.9433016,23.6468891
EL300,09/10/20,Π.Ε. Πειραιώς,Περιφέρεια Αττικής,Attica,Πειραιώς,Δημοτικό Θέατρο Πειραιά,638,6,3,3,47,0.9,37.9433016,23.6468891
EL300,12/10/20,Π.Ε. Πειραιώς,Περιφέρεια Αττικής,Attica,Νίκαια,Πλατεία Αγίου Νικολάου,677,7,3,4,32,1.0,37.9661956,23.6470506
EL300,13/10/20,Π.Ε. Πειραιώς,Περιφέρεια Αττικής,Attica,Νίκαια,Πλατεία Αγίου Νικολάου,722,14,10,4,38,1.9,37.9661956,23.6470506
EL213,14/10/20,Π.Ε. Ιωαννίνων,Π.Ε. Ιωαννίνων,Ioannina,Ιωάννινα,Ιωάννινα,2019,25,14,11,34,1.2,39.6650288,20.8537466
EL300,14/10/20,Περιφέρεια Αττικής,Περιφέρεια Αττικής,Attica,Νίκαια,Πλατεία Αγίου Νικολάου,573,7,4,3,52,1.2,37.9661956,23.6470506
EL213,15/10/20,Π.Ε. Ιωαννίνων,Π.Ε. Ιωαννίνων,Ioannina,Ιωάννινα,Διοικητήριο περιφέρειας Ηπείρου,753,11,7,4,35,1.5,39.6650288,20.8537466
EL300,15/10/20,Περιφέρεια Αττικής,Περιφέρεια Αττικής,Attica,Αθήνα,Πλατεία Βικτωρίας,496,21,12,9,27.6,4.2,37.993168,23.7297211
EL133,16/10/20,Π.Ε. Κοζάνης,Π.Ε. Κοζάνης,Kozani,Κοζάνης,Κοζάνη & Πτολεμαϊδα,402,27,0,0,0,6.7,40.3005586,21.7887737
EL300,16/10/20,Περιφέρεια Αττικής,Περιφέρεια Αττικής,Attica,Αθήνα,Πλατεία Βικτωρίας,516,19,11,8,28,3.7,37.993168,23.7297211
EL300,17/10/20,Περιφέρεια Αττικής,Περιφέρεια Αττικής,Attica,Αθήνα,Πλατεία Βικτωρίας,266,12,7,5,0,4.5,37.993168,23.7297211
EL300,19/10/20,Περιφέρεια Αττικής,Περιφέρεια Αττικής,Attica,Αθήνα,"Θησείο, σταθμός ΗΣΑΠ",340,8,5,3,21,2.4,37.9773953,23.7215228
EL300,20/10/20,Περιφέρεια Αττικής,Περιφέρεια Αττικής,Attica,Αθήνα,Πλατεία Συντάγματος,3017,29,18,11,34.8,1.0,37.9755253,23.7349038
EL126,21/10/20,Π.Ε. Σερρών,Π.Ε. Σερρών,Serres,Σέρρες,Σέρρες,271,32,21,11,34,11.8,41.0863854,23.5483819
EL300,21/10/20,Περιφέρεια Αττικής,Περιφέρεια Αττικής,Attica,Νέα Σμύρνη,Πλατεία Νέας Σμύρνης,616,7,4,3,45.5,1.1,37.9466482,23.7146172
EL413,22/10/20,Π.Ε. Χίου,Ν. Δωδεκανήσου,Dodecanese,Χίου,"ΚΦΠΜ, ΚΥΤ ΒΙΑΛ",113,9,0,0,0,8.0,38.3232673,26.0922172
EL213,22/10/20,Π.Ε. Ιωαννίνων,Π.Ε. Ιωαννίνων,Ioannina,Μέτσοβο,Μέτσοβο,463,5,0,0,0,1.1,39.7702467,21.1828612
EL126,22/10/20,Π.Ε. Σερρών,Π.Ε. Σερρών,Serres,Σέρρες,Σέρρες,302,14,8,6,32,4.6,41.0863854,23.5483819
EL300,22/10/20,Περιφέρεια Αττικής,Περιφέρεια Αττικής,Attica,Νέα Σμύρνη,Πλατεία Νέας Σμύρνης,100,8,6,2,29,8.0,37.9466482,23.7146172
EL413,22/10/20,Π.Ε. Χίου,Ν. Δωδεκανήσου,Dodecanese,Χίου,"ΚΦΠΜ, ΚΥΤ ΒΙΑΛ",327,38,0,0,0,11.6,38.3232673,26.0922172
EL300,23/10/20,Περιφέρεια Αττικής,Περιφέρεια Αττικής,Attica,Νέα Σμύρνη,Πλατεία Νέας Σμύρνης,802,8,5,3,34,1.0,37.9466482,23.7146172
EL413,24/10/20,Π.Ε. Χίου,Ν. Δωδεκανήσου,Dodecanese,Χίου,"ΚΦΠΜ, ΚΥΤ ΒΙΑΛ",276,24,0,0,0,8.7,38.3232673,26.0922172
EL421,24/10/20,Π.Ε. Σάμου,Ν. Σάμου,Dodecanese,Σάμου,Πνευματικό Κέντρο Μυτιληνιών Σάμου,71,0,0,0,0,0.0,37.7272485,26.906704
EL142,24/10/20,Π.Ε. Λαρίσης,Π.Ε. Λαρίσης,Larissa,Λάρισας,Πλατεία Ταχυδρομείου Λάρισας,511,12,5,7,30,2.3,39.6369445,22.4183368
EL421,24/10/20,Π.Ε. Ρόδου,Ν. Δωδεκανήσου,Dodecanese,Ρόδου,"Πεζόδρομος Ακταίον, Ρόδος",149,0,0,0,0,0.0,36.449142,28.224773
EL422,24/10/20,Π.Ε. Νάξου,Ν. Κυκλάδων,Cyclades,Νάξου,Φιλότι Νάξου,82,0,0,0,0,0.0,37.0514525,25.4982396
EL300,24/10/20,Περιφέρεια Αττικής,Περιφέρεια Αττικής,Attica,Νέος Κόσμος,Πλατεία Αγίου Ιωάννη Αθήνα,726,13,5,8,33,1.8,37.9561041,23.7352007
EL300,25/10/20,Περιφέρεια Αττικής,Περιφέρεια Αττικής,Attica,Νέος Κόσμος,Πλατεία Αγίου Ιωάννη Αθήνα,685,15,0,0,29.4,2.2,37.95674,23.7341678
EL300,26/10/20,Περιφέρεια Αττικής,Περιφέρεια Αττικής,Attica,Περιστέρι,Δημαρχείο Περιστερίου,989,31,14,17,35,3.1,38.0128853,23.6951379
EL300,27/10/20,Περιφέρεια Αττικής,Περιφέρεια Αττικής,Attica,Περιστέρι,Δημαρχείο Περιστερίου,1344,47,19,24,31,3.5,38.0128853,23.6951379
EL122,29/10/20,Π.Ε. Θεσσαλονίκης,Π.Ε. Θεσσαλονίκης,Thessaloniki,Θεσσαλονίκης,"Νέα Παραλία Θεσσαλονίκης, άγαλμα Μεγάλου Αλεξάνδρου",3402,252,0,0,32,7.4,40.6240612,22.9500053
EL213,30/10/20,Π.Ε. Ιωαννίνων,Π.Ε. Ιωαννίνων,Ioannina,Κόνιτσα,Δημαρχείο Κόνιτσας,147,1,1,0,39,0.7,40.0480719,20.7528378
EL232,30/10/20,Π.Ε. Αχαΐας,Π.Ε. Αχαΐας,Achaea,Πάτρα,Πάτρα,472,1,1,0,19,0.2,38.2466395,21.734574
EL300,30/10/20,Περιφέρεια Αττικής,Περιφέρεια Αττικής,Attica,Κύθηρα,Χώρα Κυθήρων & Ποταμός,492,1,1,0,46,0.2,36.1486877,22.9881921
EL421,31/10/20,Π.Ε. Ρόδου,Ν. Δωδεκανήσου,Dodecanese,Ρόδου,"Λάρδος, Ασκληπιό, Καταβιά",82,0,0,0,0,0.0,36.0943185,28.0170529
EL123,31/10/20,Π.Ε. Κιλκίς,Π.Ε. Κιλκίς,Kilkis,Γουμένισσα,Δημαρχείο Γουμένισσας,209,10,4,6,48,4.8,40.9474585,22.4559926
EL300,31/10/20,Περιφέρεια Αττικής,Περιφέρεια Αττικής,Attica,Μαρούσι,Πλατεία Ευτέρπης,104,4,3,1,42,3.8,38.04277,23.7616641
EL300,01/11/20,Περιφέρεια Αττικής,Περιφέρεια Αττικής,Attica,Μαρούσι,Πλατεία Ευτέρπης,850,14,5,9,38,1.6,38.04277,23.7616641
EL300,04/11/20,Περιφέρεια Αττικής,Περιφέρεια Αττικής,Attica,Ελληνικό,"Πλατεία Ποντίων, Ελληνικό",676,12,6,6,21,1.8,37.8916547,23.7560411
EL300,06/11/20,Π.Ε. Δυτικής Αττικής,Περιφέρεια Αττικής,Attica,Ελευσίνα,"Πλατεία Ηρώων, Ελευσίνα",660,7,6,1,38,1.1,38.0426402,23.5404673
EL232,06/11/20,Π.Ε. Αχαΐας,Π.Ε. Αχαΐας,Achaea,Πάτρα,"Πλατεία Δημοκρατίας, Πάτρα",134,0,0,0,0,0.0,38.2033835,21.7355462
EL131,06/11/20,Π.Ε. Γρεβενών,Π.Ε. Γρεβενών,Grevena,Γρεβενά,Πλατεία Δεσκάτης,89,28,13,15,49,31.5,39.9257032,21.8101429
EL125,06/11/20,Π.Ε. Πιερίας,Π.Ε. Πιερίας,Pieria,Πιερία,Πλατεία Λόφου,34,8,5,3,66,23.5,34.816485,32.8754261
EL123,06/11/20,Π.Ε. Κιλκίς,Π.Ε. Κιλκίς,Kilkis,Κιλκίς,Πλατεία Δημαρχείου (Πλατεία Λατσιών),741,51,29,22,42,6.9,35.0943766,33.3766669
EL111,11/11/20,Π.Ε. Άνδρου,Π.Ε. Άνδρου,Evros,Άνδρου,"Γαύριο, λιμάνι",59,0,0,0,0,0.0,37.824471,24.8237517
EL421,11/11/20,Π.Ε. Ρόδου,Ν. Δωδεκανήσου,Dodecanese,Ρόδου,5ο χλμ Ρόδου-Λίνδου,28,0,0,0,0,0.0,36.2969409,28.1648456
EL254,11/11/20,Π.Ε. Λακωνίας,Π.Ε. Λακωνίας,Laconia,Αρεόπολη,Επαρχιακή Οδό Αρεόπολης-Γερολιμένα,61,0,0,0,0,0.0,36.5792417,22.4024825
EL112,13/11/20,Π.Ε. Ξάνθης,Π.Ε. Ξάνθης,Xanthi,Ξάνθης,"Γήπεδο ΑΟΞ, γέφυρα Κοσύνθου",215,16,7,9,39,7.4,41.1438703,24.8942076
EL114,13/11/20,Π.Ε. Δράμας,Π.Ε. Δράμας,Drama,Δράμας,Πάρκο Κομνηνών,20,4,3,1,51,20.0,41.1522679,24.1227548
EL142,13/11/20,Π.Ε. Λαρίσης,Π.Ε. Λαρίσης,Larissa,Λάρισας,Σεπαστή Αγορά,595,34,14,20,40,5.7,39.6191357,22.4027086
EL421,13/11/20,Π.Ε. Ρόδου,Ν. Δωδεκανήσου,Dodecanese,Ρόδου,oδός Αγίων Αποστόλων έξω από το Γ.Ν. Ρόδου,28,0,0,0,0,0.0,36.4180307,28.1929617
EL254,13/11/20,Π.Ε. Λακωνίας,Π.Ε. Λακωνίας,Laconia,Αρεόπολη,Αερόπολη,61,0,0,0,0,0.0,36.6660079,22.3805151
EL144,16/11/20,Π.Ε. Τρικάλων,Π.Ε. Τρικάλων,Trikala,Τρίκαλα,"οδός Κλειδωνοπούλου, Παλαιά Ζωαγορά",150,12,3,9,52,8.0,39.5557317,21.7678951
EL421,16/11/20,Π.Ε. Ρόδου,Ν. Δωδεκανήσου,Dodecanese,Ρόδου,"Κρεμαστή Ρόδου, Λ. Ηρακλειδών",24,0,0,0,0,0.0,36.4169551,28.1666948
EL111,16/11/20,Π.Ε. Άνδρου,Π.Ε. Άνδρου,Evros,Άνδρου,Μπατσί,58,0,0,0,0,0.0,37.8560041,24.7863753
EL142,16/11/20,Π.Ε. Λαρίσης,Π.Ε. Λαρίσης,Larissa,Λάρισας,Κλειστό Γυμναστήριο Τυρνάβου,187,9,3,6,38,4.8,39.7353102,22.2907843
EL114,16/11/20,Π.Ε. Δράμας,Π.Ε. Δράμας,Drama,Δράμας,Οδός Δράμας - Καβάλας,167,33,0,0,0,19.8,41.0392032,24.2644798
EL112,16/11/20,Π.Ε. Ξάνθης,Π.Ε. Ξάνθης,Xanthi,Ξάνθης,"Γήπεδο ΑΟΞ, γέφυρα Κοσύνθου",258,30,15,15,44,11.6,41.1438703,24.8942076
EL132,17/11/20,Π.Ε. Καστοριάς,Π.Ε. Καστοριάς,Kastoria,Καστοριάς,"Λεωφόρος Κύκνων 31, Καστοριά",85,1,1,0,65,1.2,40.5150661,21.2544766
EL254,17/11/20,Π.Ε. Λακωνίας,Π.Ε. Λακωνίας,Laconia,Γύθειο,Δημαρχείο Γυθείου,178,0,0,0,0,0.0,36.7603153,22.5659961
EL255,17/11/20,Π.Ε. Μεσσηνίας,Π.Ε. Μεσσηνίας,Messenia,Καλαμάτα,Μέγαρο Χορού,164,3,2,1,38,1.8,37.0366,22.1144
EL421,17/11/20,Π.Ε. Ρόδου,Ν. Δωδεκανήσου,Dodecanese,Ρόδου,"3ο χλμ Ρόδου-Καλλιθέας, Lidl super market",103,5,1,4,29,4.9,36.4165186,28.228991
EL142,17/11/20,Π.Ε. Λαρίσης,Π.Ε. Λαρίσης,Larissa,Φάρσαλα,Φάρσαλα,253,8,2,6,52,3.2,39.295635,22.384495
EL112,17/11/20,Π.Ε. Ξάνθης,Π.Ε. Ξάνθης,Xanthi,Ξάνθης,"Γήπεδο ΑΟΞ, γέφυρα Κοσύνθου",302,49,24,25,44,16.2,41.1438703,24.8942076
EL251,19/11/20,Π.Ε. Αργολίδας,Π.Ε. Αργολίδας,Argolis,Ναύπλιο,Ναύπλιο,163,0,0,0,0,0.0,37.5673173,22.8015531
EL143,19/11/20,Π.Ε. Μαγνησίας,Ν. Μαγνησίας,Magnesia,Βόλος,Βόλος,368,44,24,20,48,12.0,39.366584,22.9506769
EL244,19/11/20,Π.Ε. Φθιώτιδας,Π.Ε. Φθιώτιδας,Phthiotis,Λαμία,Λαμία,232,7,5,2,53,3.0,38.8997323,22.4336668
EL142,19/11/20,Π.Ε. Λαρίσης,Π.Ε. Λαρίσης,Larissa,Κιλελέρ,Δήμος Κιλελέρ,186,4,3,1,50,2.2,39.5047614,22.6394813
EL142,19/11/20,Π.Ε. Λαρίσης,Π.Ε. Λαρίσης,Larissa,Τέμπη,Δήμος Τεμπών,100,4,3,1,40,4.0,39.8594893,22.5308681
EL112,19/11/20,Π.Ε. Ξάνθης,Π.Ε. Ξάνθης,Xanthi,Ξάνθης,"Γήπεδο ΑΟΞ, γέφυρα Κοσύνθου",201,89,50,39,43,44.3,41.1438703,24.8942076
EL422,20/11/20,Π.Ε. Σύρου,Ν. Κυκλάδων,Cyclades,Ερμούπολη,"Ερμούπολη, Σύρος",280,1,0,0,43,0.4,37.4418105,24.9404242
EL221,20/11/20,Π.Ε. Ζακύνθου,Π.Ε. Ζακύνθου,Zakynthos,Ζάκυνθος,Ζάκυνθος,43,0,0,0,0,0.0,37.7870331,20.8998759
EL112,20/11/20,Π.Ε. Ξάνθης,Π.Ε. Ξάνθης,Xanthi,Ξάνθης,"Γήπεδο ΑΟΞ, γέφυρα Κοσύνθου",130,14,9,5,40,10.8,41.1438703,24.8942076
EL114,20/11/20,Π.Ε. Δράμας,Π.Ε. Δράμας,Drama,Δράμας,Δράμα,212,23,10,13,51,10.8,41.1502273,24.1469489
EL142,20/11/20,Π.Ε. Λαρίσης,Π.Ε. Λαρίσης,Larissa,Δήμος Αγιάς,"Δήμος Αγιάς, Λάρισα",114,2,2,0,57,1.8,39.7190695,22.7586904
EL254,20/11/20,Π.Ε. Λαμίας,Π.Ε. Λακωνίας,Laconia,Λαμία,Λαμία,262,6,3,2,58,2.3,38.8997323,22.4336668
EL251,23/11/20,Π.Ε. Αργολίδας,Π.Ε. Αργολίδας,Argolis,Αργολίδας,"Λυγουριό, Αργολίδα",77,0,0,0,0,0.0,37.6123892,23.0358834
EL422,23/11/20,Π.Ε. Πάρου,Ν. Κυκλάδων,Cyclades,Αντίπαρος,Δημοτικό parking Αντιπάρου,48,0,0,0,0,0.0,37.0404511,25.0792165
EL232,23/11/20,Π.Ε. Αχαΐας,Π.Ε. Αχαΐας,Achaea,Κάτω Αχαϊά,Κάτω Αχαΐα,166,0,0,0,0,0.0,38.143032,21.5520979
EL131,23/11/20,Π.Ε. Γρεβενών,Π.Ε. Γρεβενών,Grevena,Γρεβενών,Δεσκάτη Γρεβενών,34,0,0,0,0,0.0,39.9257032,21.8101429
EL114,23/11/20,Π.Ε. Δράμας,Π.Ε. Δράμας,Drama,Δράμας,80ο χιλιόμετρο Δράμας-Νευροκοπίου,114,11,5,6,48,9.6,41.3456622,23.9060624
EL233,23/11/20,Π.Ε. Ηλείας,Π.Ε. Ηλείας,Elis,Ηλείας,"Οδός Πατρών 74, Ηλεία",97,0,0,0,0,0.0,37.677032,21.4303075
EL132,23/11/20,Π.Ε. Καστοριάς,Π.Ε. Καστοριάς,Kastoria,Καστοριάς,"Λεωφόρος Κύκνων 31, Καστοριά",54,7,3,4,38,13.0,40.5171357,21.255256
EL133,23/11/20,Π.Ε. Κοζάνης,Π.Ε. Κοζάνης,Kozani,Κοζάνης,"Νιάημερος, Κοζάνη",85,0,0,0,0,0.0,40.3115839,21.7826677
EL112,23/11/20,Π.Ε. Ξάνθης,Π.Ε. Ξάνθης,Xanthi,Ξάνθης,"Γήπεδο ΑΟΞ, γέφυρα Κοσύνθου",150,44,26,18,45,29.3,41.1438703,24.8942076
EL421,23/11/20,Π.Ε. Ρόδου,Ν. Δωδεκανήσου,Dodecanese,Ρόδου,Αρχάγγελος Ρόδου,129,2,2,0,61,1.6,36.2145292,28.116926
EL144,23/11/20,Π.Ε. Τρικάλων,Π.Ε. Τρικάλων,Trikala,Τρίκαλα,Τρίκαλα,240,17,10,7,46,7.1,39.5557317,21.7678951
EL111,24/11/20,Π.Ε. Άνδρου,Π.Ε. Άνδρου,Evros,Κόρθι,"Κόρθι, Άνδρου",51,0,0,0,0,0.0,37.7507674,24.9279547
EL142,24/11/20,Π.Ε. Λαρίσης,Π.Ε. Λαρίσης,Larissa,Νεάπολη,"Σκεπαστή αγορά Νεάπολης, Λάρισα",478,47,26,21,47,9.8,39.6189242,22.4028242
EL253,24/11/20,Π.Ε. Κορινθίας,Π.Ε. Κορινθίας,Corinthia,Κιάτο,Κιάτο,211,1,0,45,0,0.5,38.0126545,22.750171
EL255,24/11/20,Π.Ε. Μεσσηνίας,Π.Ε. Μεσσηνίας,Messenia,Καλαμάτα,Μέγαρο Χορού,174,0,0,0,0,0.0,37.0366,22.1144
EL113,24/11/20,Π.Ε. Ροδόπης,Π.Ε. Ροδόπης,Rhodope,Κομοτηνή,"Δωδεκανήσου 8-22, Κομοτηνή",228,13,6,7,42,5.7,41.124357,25.4182781
EL244,24/11/20,Π.Ε. Φθιώτιδας,Π.Ε. Φθιώτιδας,Phthiotis,Λαμία,"Φιλίας 10, Λαμία",220,8,6,2,49,3.6,38.8890753,22.4482919
EL111,25/11/20,Π.Ε. Άνδρου,Π.Ε. Άνδρου,Evros,Άνδρου,Χώρα Άνδρου,27,0,0,0,0,0.0,37.8380382,24.9391268
EL251,25/11/20,Π.Ε. Αργολίδας,Π.Ε. Αργολίδας,Argolis,Αργολίδας,3ο χλμ Οδός Ναυπλίου-Άργους Ν. Τίρυνθα,76,0,0,0,0,0.0,37.5995263,22.7995951
EL233,25/11/20,Π.Ε. Ηλείας,Π.Ε. Ηλείας,Elis,Αμαλιάδα,"Αμαλιάδα, Ηλεία",67,0,0,0,0,0.0,37.7967917,21.3507581
EL121,25/11/20,Π.Ε. Ημαθίας,Π.Ε. Ημαθίας,Imathia,Νάουσα,Γήπεδο Νάουσας,259,9,6,3,49,3.5,40.6272728,22.0774106
EL132,25/11/20,Π.Ε. Καστοριάς,Π.Ε. Καστοριάς,Kastoria,Καστοριάς,"Λεωφόρος Κύκνων 31, Καστοριά",60,1,1,0,37,1.7,40.5171357,21.255256
EL141,25/11/20,Π.Ε. Καρδίτσας,Π.Ε. Καρδίτσας,Karditsa,Καρδίτσας,Περιφερειακός Καρδιτσομαγούλας,341,35,25,10,39,10.3,39.3915625,21.9245288
EL142,25/11/20,Π.Ε. Λαρίσης,Π.Ε. Λαρίσης,Larissa,Ελασσόνα,Λιβάδι Ελασσόνας,186,16,7,9,67,8.6,40.1269757,22.1577741
EL411,25/11/20,Π.Ε. Λέσβου,Ν. Λέσβου,Lesbos,Μυτιλήνη,Μυτιλήνη,255,5,4,1,46,2.0,39.1067382,26.5572747
EL112,25/11/20,Π.Ε. Ξάνθης,Π.Ε. Ξάνθης,Xanthi,Ξάνθης,"Γήπεδο ΑΟΞ, γέφυρα Κοσύνθου",115,16,10,6,51,13.9,41.1438703,24.8942076
EL422,25/11/20,Π.Ε. Πάρου,Ν. Κυκλάδων,Cyclades,Νάουσα,"Νάουσα, Πάρος",145,0,0,0,0,0.0,37.1235743,25.238722
EL124,25/11/20,Π.Ε. Πέλλας,Π.Ε. Πέλλας,Pella,Γιαννιτσά,Λαϊκή Αγορά Γιαννιτσών,379,48,7,21,48,12.7,40.796986,22.4126696
EL113,25/11/20,Π.Ε. Ροδόπης,Π.Ε. Ροδόπης,Rhodope,Κομοτηνή,"Δωδεκανήσου 8-22, Κομοτηνή",210,11,6,5,45,5.2,41.124357,25.4182781
EL421,25/11/20,Π.Ε. Ρόδου,Ν. Δωδεκανήσου,Dodecanese,Ρόδου,Κεντρική Οδός-Πλατεία Αφάντου,85,0,0,0,0,0.0,36.2958917,28.1631668
EL422,25/11/20,Π.Ε. Σύρου,Ν. Κυκλάδων,Cyclades,Ερμούπολη,οδός Ηρώων Πολυτεχνείου 21 Ερμούπολη,113,3,1,2,52,2.7,37.4301243,24.9370666
EL121,26/11/20,Π.Ε. Ημαθίας,Π.Ε. Ημαθίας,Imathia,Βέροια,"Βέροια, ΕΑΚ Μακροχωρίου",298,22,14,8,53,7.4,40.916667,22.416667
EL115,26/11/20,Π.Ε. Καβάλας,Ν. Καβάλας,Kavala,Καβάλας,Τελωνείο Καβάλας,225,6,5,1,44,2.7,40.9339205,24.4118213
EL141,26/11/20,Π.Ε. Καρδίτσας,Π.Ε. Καρδίτσας,Karditsa,Σοφάδες,"Σοφάδες, Καρδίτσα",154,5,4,1,58,3.2,39.3359337,22.0916414
EL133,26/11/20,Π.Ε. Κοζάνης,Π.Ε. Κοζάνης,Kozani,Βελβεντός,"Δημαρχείο Βελβεντίου, Βελβεντός",76,2,2,0,70,2.6,40.2361265,22.0923755
EL253,26/11/20,Π.Ε. Κορινθίας,Π.Ε. Κορινθίας,Corinthia,Δήμος Βέλου - Βόχας,"Αγίας Μαρίνης 110, Δήμος Βέλου - Βόχας",110,0,0,0,0,0.0,37.976112,22.7592908
EL113,26/11/20,Π.Ε. Ροδόπης,Π.Ε. Ροδόπης,Rhodope,Κομοτηνή,"Δωδεκανήσου 8-22, Κομοτηνή",220,15,6,9,42,6.8,41.124357,25.4182781
EL421,26/11/20,Π.Ε. Ρόδου,Ν. Δωδεκανήσου,Dodecanese,Ρόδου,Πλατεία Μανδρινού,159,5,3,2,39,3.1,37.9841465,23.7280893
EL244,26/11/20,Π.Ε. Φθιώτιδας,Π.Ε. Φθιώτιδας,Phthiotis,Λαμία,"Φιλίας 10, Λαμία",167,6,4,2,47,3.6,38.8890753,22.4482919
EL241,28/11/20,Π.Ε. Βοιωτίας,Π.Ε. Βοιωτίας,Boeotia,Αλίαρτος,Αλίαρτος,144,2,2,0,36,1.4,38.3726,23.09915
EL114,28/11/20,Π.Ε. Δράμας,Π.Ε. Δράμας,Drama,Δράμας,"Γήπεδο Ν. Αμμίσου, Δράμα",175,7,2,5,42,4.0,41.12523,24.13283
EL253,28/11/20,Π.Ε. Κορίνθου,Π.Ε. Κορινθίας,Corinthia,Κόρινθος,"Ζευγολατιό, Σπύρου Κωκώνη 2, Κόρινθος",102,0,0,0,0,0.0,37.94124,22.80028
EL143,28/11/20,Π.Ε. Μαγνησίας,Ν. Μαγνησίας,Magnesia,Βόλος,Πανθεσσαλικό Στάδιο Βόλου,245,17,11,6,34,6.9,39.387373,22.931447
EL422,28/11/20,Π.Ε. Πάρου,Ν. Κυκλάδων,Cyclades,Παροικιά,Παροικιά Πάρου,116,0,0,0,0,0.0,37.06972,25.20931
EL422,28/11/20,Π.Ε. Σύρου,Ν. Κυκλάδων,Cyclades,Ερμούπολη,"Ηρώων Πολυτεχνείου 19, Ερμούπολη, Σύρος",101,0,0,0,0,0.0,37.4338619,24.9352977
EL144,28/11/20,Π.Ε. Τρικάλων,Π.Ε. Τρικάλων,Trikala,Καλαμπάκα,"Καλαμπάκα, Τρίκαλα",216,2,2,0,39,0.9,39.706618,21.6288728
EL127,28/11/20,Π.Ε. Χαλκιδικής,Π.Ε. Χαλκιδικής,Chalkidiki,Νέα Μουδανιά,"Νέα Μουδανιά, Χαλκιδικής",89,5,1,4,46,5.6,40.2409723,23.2865614
EL251,01/12/20,Π.Ε. Αργολίδας,Π.Ε. Αργολίδας,Argolis,Αργολίδας,Επαρχιακή Οδός Κρανιδίου,203,2,2,0,40,1.0,37.3779646,23.1621988
EL232,01/12/20,Π.Ε. Αχαΐας,Π.Ε. Αχαΐας,Achaea,Αίγιο,"Μητροπόλεως & Σολωμού 5, Αίγιο",144,1,1,0,54,0.7,37.9754994,23.7299785
EL142,01/12/20,Π.Ε. Λαρίσης,Π.Ε. Λαρίσης,Larissa,Λάρισας,"Σκεπαστή αγορά Νεάπολης, Λάρισα",274,8,4,4,32,2.9,39.6189242,22.4028242
EL422,01/12/20,Π.Ε. Πάρου,Ν. Κυκλάδων,Cyclades,Νάουσα,"Νάουσα, Πάρος",64,0,0,0,0,0.0,37.1235743,25.238722
EL421,01/12/20,Π.Ε. Ρόδου,Ν. Δωδεκανήσου,Dodecanese,Ρόδου,"Λεωφόρος Ελευθερίας 1, Κρεμαστή Ρόδου",49,0,0,0,0,0.0,36.4124591,28.1230716
EL141,02/12/20,Π.Ε. Καρδίτσας,Π.Ε. Καρδίτσας,Karditsa,Καρδίτσας,Περιφερειακός Καρδιτσομαγούλας,178,7,4,3,61,3.9,39.3915625,21.9245288
EL132,02/12/20,Π.Ε. Καστοριάς,Π.Ε. Καστοριάς,Kastoria,Καστοριάς,"Λεωφόρος Κύκνων 31, Καστοριά",60,3,3,0,41,5.0,40.517153,21.2552649
EL411,02/12/20,Π.Ε. Λέσβου,Ν. Λέσβου,Lesbos,Λέσβου,"Καλλονή, Λέσβος",133,0,0,0,0,0.0,39.233118,26.2072301
EL124,02/12/20,Π.Ε. Πέλλας,Π.Ε. Πέλλας,Pella,Έδεσσα,"Ξενοδοχείο Ξενία, Έδεσσα",272,11,7,4,54,4.0,40.7975649,22.0500124
EL421,02/12/20,Π.Ε. Ρόδου,Ν. Δωδεκανήσου,Dodecanese,Ιαλυσσός,"Φερενίκης 3, Ιαλυσσός",58,0,0,0,0,0.0,36.422006,28.15507
EL144,02/12/20,Π.Ε. Τρικάλων,Π.Ε. Τρικάλων,Trikala,Τρίκαλα,"Φαρκαδόνα, Τρίκαλα",82,1,0,1,55,1.2,39.5931322,22.0668864
EL251,03/12/20,Π.Ε. Αργολίδας,Π.Ε. Αργολίδας,Argolis,Ερμιονίδα,"Δίδυμα, Ερμιονίδα",111,1,1,0,80,0.9,37.463403,23.1723945
EL111,03/12/20,Π.Ε. Έβρου,Π.Ε. Έβρου,Evros,Αλεξανδρούπολη,"Πάρκο Φώτης Κοσμάς, Αλεξανδρούπολη",270,2,2,0,32,0.7,40.8449191,25.862252
EL142,03/12/20,Π.Ε. Λαρίσης,Π.Ε. Λαρίσης,Larissa,Φάρσαλα,Φάρσαλα,88,4,2,2,45,4.5,39.295635,22.384495
EL141,03/12/20,Π.Ε. Καρδίτσας,Π.Ε. Καρδίτσας,Karditsa,Καρδίτσας,"Παλαμάς, Καρδίτσα",102,4,1,3,45,3.9,39.4690329,22.082317
EL112,03/12/20,Π.Ε. Ξάνθης,Π.Ε. Ξάνθης,Xanthi,Άβδηρα,"Δημαρχείο Γενισσέας, Άβδηρα",112,7,3,4,51,6.3,41.0610542,24.9613827
EL422,04/12/20,Π.Ε. Πάρου,Ν. Κυκλάδων,Cyclades,Πάρου,Παροικιά Πάρου,23,0,0,0,0,0.0,37.0856432,25.1488318
EL421,05/12/20,Π.Ε. Ρόδου,Ν. Δωδεκανήσου,Dodecanese,Ρόδου,"Καποδιστρίου και Αυστραλίας 1, Ρόδος",84,0,0,0,0,0.0,36.4406419,28.2359142
EL244,06/12/20,Π.Ε. Φθιώτιδας,Π.Ε. Φθιώτιδας,Phthiotis,Λαμία,"Φιλίας 10, Λαμία",184,7,6,1,44,3.8,38.8890753,22.4482919
EL421,06/12/20,Π.Ε. Ρόδου,Ν. Δωδεκανήσου,Dodecanese,Ρόδου,"Γεωργίου Παπανικολάου 1, ρόδος",51,0,0,0,0,0.0,36.4526314,28.2228811
EL244,06/12/20,Π.Ε. Φθιώτιδας,Π.Ε. Φθιώτιδας,Phthiotis,Λαμία,"Φιλίας 10, Λαμία",239,7,2,5,60,2.9,38.8890753,22.4482919
EL114,07/12/20,Π.Ε. Δράμας,Π.Ε. Δράμας,Drama,Δράμας,10ο χιλιόμετρο Δράμας - Καβάλας,270,9,6,3,48,3.3,41.0392032,24.2644798
EL132,07/12/20,Π.Ε. Καστοριάς,Π.Ε. Καστοριάς,Kastoria,Καστοριάς,"Λεωφόρος Κύκνων 31, Καστοριά",35,2,2,0,48,5.7,40.5171357,21.255256
EL253,07/12/20,Π.Ε. Κορινθίας,Π.Ε. Κορινθίας,Corinthia,Άγιοι Θεόδωροι,"Άγιοι Θεόδωροι, Κορινθία",133,1,0,1,45,0.8,37.9282447,23.1433311
EL411,07/12/20,Π.Ε. Λέσβου,Ν. Λέσβου,Lesbos,Γέρα,"Γέρα, Λέσβος",149,5,4,1,43,3.4,39.012074,26.4783981
EL422,07/12/20,Π.Ε. Σύρου,Ν. Κυκλάδων,Cyclades,Ερμούπολη,"Ηρώων Πολυτεχνείου 19, Ερμούπολη, Σύρος",14,0,0,0,0,0.0,37.4363713,24.935864
EL144,07/12/20,Π.Ε. Τρικάλων,Π.Ε. Τρικάλων,Trikala,Τρίκαλα,Τρίκαλα,206,11,3,8,41,5.3,39.5557317,21.7678951
EL111,08/12/20,Π.Ε. Έβρου,Π.Ε. Έβρου,Evros,Αλεξανδρούπολη,"Πάρκο Φώτης Κοσμάς, Αλεξανδρούπολη",384,7,3,4,40,1.8,40.8449191,25.862252
EL143,09/12/20,Π.Ε. Μαγνησίας,Ν. Μαγνησίας,Magnesia,Βόλος,Πανθεσσαλικό Στάδιο Βόλου,198,9,6,3,45,4.5,39.3874845,22.930828
EL300,09/12/20,Π.Ε. Ανατολικής Αττικής,Περιφέρεια Αττικής,Attica,Αχαρνές,"Αχαρνές, Αττική",386,8,5,3,37,2.1,38.0852204,23.738064
EL114,09/12/20,Π.Ε. Δράμας,Π.Ε. Δράμας,Drama,Σιτάγρι,"Σιτάγρι, Δράμας",217,2,2,0,36,0.9,41.1116953,24.0280492
EL242,09/12/20,Π.Ε. Εύβοιας,Π.Ε. Ευβοίας,Euboea,Χαλκίδα,"Κυμαίων 20, Χαλκίδα",114,2,1,1,53,1.8,38.4590928,23.6000865
EL141,09/12/20,Π.Ε. Καρδίτσας,Π.Ε. Καρδίτσας,Karditsa,Καρδίτσας,Περιφερειακός Καρδιτσομαγούλας,310,14,4,10,53,4.5,39.3915625,21.9245288
EL132,09/12/20,Π.Ε. Καστοριάς,Π.Ε. Καστοριάς,Kastoria,Καστοριάς,"Λεωφόρος Κύκνων 31, Καστοριά",37,3,2,1,41,8.1,40.517153,21.2552649
EL254,09/12/20,Π.Ε. Λακωνίας,Π.Ε. Λακωνίας,Laconia,Σκάλα,Σκάλα Λακωνίας,55,0,0,0,0,0.0,36.8511423,22.6663306
EL124,09/12/20,Π.Ε. Πέλλας,Π.Ε. Πέλλας,Pella,Εξαπλάτανος,"Πλατεία Εξαπλατάνου, Εξαπλάτανος, Πέλλα",157,2,2,55,0,1.3,40.9790962,22.128675
EL422,09/12/20,Π.Ε. Σύρου,Ν. Κυκλάδων,Cyclades,Ερμούπολη,"Ηρώων Πολυτεχνείου 19, Ερμούπολη, Σύρος",52,0,0,0,0,0.0,37.4338619,24.9352977
EL434,09/12/20,Π.Ε. Χανίων,Π.Ε. Χανίων,Chania,Χανιά,"Πλατεία Ελευθερίας, Χανιά",600,2,0,2,37,0.3,35.5098481,24.030608
EL413,09/12/20,Π.Ε. Χίου,Ν. Δωδεκανήσου,Dodecanese,Χίου,"Ιωνικό Κολυμβητήριο, Χίος",123,2,1,1,47,1.6,38.3308941,26.1438283
EL124,10/12/20,Π.Ε. Πέλλας,Π.Ε. Πέλλας,Pella,Σκύδρα,"Σκύδρα, Πέλλας",192,7,4,3,51,3.6,40.7673908,22.1539417
EL254,10/12/20,Π.Ε. Λακωνίας,Π.Ε. Λακωνίας,Laconia,Γύθειο,"Γύθειο, Λακωνία",61,0,0,0,0,0.0,36.761028,22.563999
EL143,10/12/20,Π.Ε. Μαγνησίας,Ν. Μαγνησίας,Magnesia,Βόλος,"Καλά Νερά, Βόλου",104,0,0,0,0,0.0,39.3064901,23.1190815
EL122,10/12/20,Π.Ε. Θεσσαλονίκης,Π.Ε. Θεσσαλονίκης,Thessaloniki,Θεσσαλονίκης,"Ποσειδώνιο, Θεσσαλονίκη",103,0,0,0,0,0.0,40.5972952,22.9497419
EL122,10/12/20,Π.Ε. Θεσσαλονίκης,Π.Ε. Θεσσαλονίκης,Thessaloniki,Θεσσαλονίκης,"Καυτατζόγλειο, Θεσσαλονίκη",59,0,0,0,0,0.0,40.6255005,22.9669699
EL244,10/12/20,Π.Ε. Φθιώτιδας,Π.Ε. Φθιώτιδας,Phthiotis,Λαμία,"Φιλίας 10, Λαμία",243,3,2,1,54,1.2,38.8890753,22.4482919
EL413,10/12/20,Π.Ε. Χίου,Ν. Δωδεκανήσου,Dodecanese,Χίου,"Πυργί, Χίου",86,0,0,0,0,0.0,38.2269515,25.9966559
EL421,11/12/20,Π.Ε. Ρόδου,Ν. Δωδεκανήσου,Dodecanese,Νότια Ρόδος,Κατταβιά και Απολλακιά Νότιας Ρόδου,75,0,0,0,0,0.0,36.0665098,27.7879535
EL231,11/12/20,Π.Ε. Αιτωλοακαρνανίας,Π.Ε. Αιτωλοακαρνανίας,Aetolia-Acarnania,Μεσολόγγι,Μεσολόγγι,26,0,0,0,0,0.0,38.3686739,21.430415
EL300,11/12/20,Π.Ε. Βόρειου Τομέα Αθηνών,Περιφέρεια Αττικής,Attica,Αγία Παρασκευή,"Σπάρτης 1, Γήπεδο Σπυρούδι, Αγία Παρασκευή",179,0,0,0,0,0.0,38.009373,23.8340574
EL300,11/12/20,Π.Ε. Δυτικού Τομέα Αθηνών,Περιφέρεια Αττικής,Attica,Πετρούπολη,Θέατρο Πέτρας,291,2,1,1,54,0.7,38.0464893,23.6731288
EL242,11/12/20,Π.Ε. Ευβοίας,Π.Ε. Ευβοίας,Euboea,Ψαχνά,"Βουλγαροκτόνου 36, Ψαχνά",73,2,1,1,61,2.7,38.5801954,23.6452237
EL122,11/12/20,Π.Ε. Θεσσαλονίκης,Π.Ε. Θεσσαλονίκης,Thessaloniki,Θεσσαλονίκης,"Ποσειδώνιο, Θεσσαλονίκη",74,0,0,0,0,0.0,40.5972952,22.9497419
EL122,11/12/20,Π.Ε. Θεσσαλονίκης,Π.Ε. Θεσσαλονίκης,Thessaloniki,Θεσσαλονίκης,"Καυτατζόγλειο, Θεσσαλονίκη",76,0,0,0,0,0.0,40.6255005,22.9669699
EL143,11/12/20,Π.Ε. Μαγνησίας,Ν. Μαγνησίας,Magnesia,Βόλος,Πανθεσσαλικό Στάδιο Βόλου,246,3,1,2,39,1.2,39.3874845,22.930828
EL124,11/12/20,Π.Ε. Πέλλας,Π.Ε. Πέλλας,Pella,Κρύα Βρύση,"Κρύα Βρύση, Πέλλας",134,7,1,6,28,5.2,40.6872386,22.3041354
EL244,11/12/20,Π.Ε. Φθιώτιδας,Π.Ε. Φθιώτιδας,Phthiotis,Ομβριακή,"Ομβριακή, Φθιώτιδας",31,0,0,0,0,0.0,39.1017872,22.2713536
EL244,11/12/20,Π.Ε. Φθιώτιδας,Π.Ε. Φθιώτιδας,Phthiotis,Νέο Μοναστήρι,"Νέο Μοναστήρι, Φθιώτιδας",44,0,0,0,0,0.0,39.2408251,22.2741094
EL244,11/12/20,Π.Ε. Φθιώτιδας,Π.Ε. Φθιώτιδας,Phthiotis,Δομοκός,"Δομοκός, Φθιώτιδας",71,1,1,0,65,1.4,39.1288319,22.2984478
EL413,11/12/20,Π.Ε. Χίου,Ν. Δωδεκανήσου,Dodecanese,Χίου,"Ιωνικό Κολυμβητήριο, Χίος",116,3,3,0,55,2.6,38.3308941,26.1438283
EL144,12/12/20,Π.Ε. Τρικάλων,Π.Ε. Τρικάλων,Trikala,Τρίκαλα,Πύλη Τρικάλων,175,3,1,2,38,1.7,39.45978,21.6225718
EL300,12/12/20,Π.Ε. Βόρειου Τομέα Αθηνών,Περιφέρεια Αττικής,Attica,Παπάγου,"8ης Μεραρχίας, Άλσος Παπάγου",608,0,0,0,0,0.0,37.9933999,23.794074
EL300,12/12/20,Π.Ε. Δυτικής Αττικής,Περιφέρεια Αττικής,Attica,Ασπρόπυργος,"Λεωφόρος Δημοκρατίας 18, Πλατεία Δημαρχείου, Ασπρόπυργος",267,9,6,3,37,3.4,38.0618502,23.5891252
EL300,12/12/20,Π.Ε. Νότιου Τομέα,Περιφέρεια Αττικής,Attica,Άλιμος,"Καλαμακίου και Ποσειδώνος, Άλιμος",410,0,0,0,0,0.0,37.9107838,23.7114445
EL122,12/12/20,Π.Ε. Θεσσαλονίκης,Π.Ε. Θεσσαλονίκης,Thessaloniki,Θεσσαλονίκης,"Ποσειδώνιο, Θεσσαλονίκη",47,0,0,0,0,0.0,40.5972952,22.9497419
EL122,12/12/20,Π.Ε. Θεσσαλονίκης,Π.Ε. Θεσσαλονίκης,Thessaloniki,Θεσσαλονίκης,"Καυτατζόγλειο, Θεσσαλονίκη",87,0,0,0,0,0.0,40.6255005,22.9669699
EL211,12/12/20,Π.Ε. Άρτας,Π.Ε. Άρτας,Arta,Άρτας,"Εκθεσιακό Κέντρο Κ. Βαγιάς, Άρτα",173,0,0,0,0,0.0,39.1670606,20.9836152
EL131,12/12/20,Π.Ε. Γρεβενών,Π.Ε. Γρεβενών,Grevena,Γρεβενών,Ανατολικός Κόμβος Γρεβενών,210,3,2,1,62,1.4,40.0134476,21.1891151
EL124,12/12/20,Π.Ε. Πέλλας,Π.Ε. Πέλλας,Pella,Γιαννιτσά,"Κέντρο Υγείας, Γιαννιτσά",261,8,4,4,41,3.1,40.7906533,22.4216288
EL421,12/12/20,Π.Ε. Ρόδου,Ν. Δωδεκανήσου,Dodecanese,Ρόδου,Διασταύρωση Κολύμπια και Αρχαγγέλου,39,0,0,0,0,0.0,36.2564596,28.1480183
EL214,13/12/20,Π.Ε. Πρέβεζας,Π.Ε. Πρεβέζης,Preveza,Πρέβεζας,"Πλατεία Ανδρούτσου, Πρέβεζα",175,0,0,0,0,0.0,38.9560664,20.7514488
EL300,13/12/20,Π.Ε. Δυτικής Αττικής,Περιφέρεια Αττικής,Attica,Ελευσίνα,"Τραυλού και Χατζηδάκη, Ελευσίνα",680,16,6,10,44,2.4,38.0447686,23.5404526
EL300,13/12/20,Π.Ε. Νότιου Τομέα,Περιφέρεια Αττικής,Attica,Άλιμος,"Καλαμακίου και Ποσειδώνος, Άλιμος",326,0,0,0,0,0.0,37.9107838,23.7114445
EL300,13/12/20,Π.Ε. Πειραιώς,Περιφέρεια Αττικής,Attica,Πειραιώς,Δημοτικό Θέατρο Πειραιά,239,3,2,1,37,1.3,37.9433016,23.6468891
EL421,14/12/20,Π.Ε. Ρόδου,Ν. Δωδεκανήσου,Dodecanese,Ρόδου,"Φιλερήμου 29, Ρόδος",30,0,0,0,0,0.0,36.4244547,28.2285477
EL300,14/12/20,Π.Ε. Κεντρικού Τομέα Αθηνών,Περιφέρεια Αττικής,Attica,Αθήνα,Σταθμός Μετρό «Σύνταγμα»,683,4,2,2,45,0.6,37.9745068,23.7352651
EL300,14/12/20,Π.Ε. Νότιου Τομέα Αθηνών,Περιφέρεια Αττικής,Attica,Καλλιθέα,"Ματζαγριωτάκη και Εσπερίδων, Καλλιθέα",239,2,1,1,58,0.8,37.9560553,23.7036565
EL122,14/12/20,Π.Ε. Θεσσαλονίκης,Π.Ε. Θεσσαλονίκης,Thessaloniki,Θεσσαλονίκης,"Ποσειδώνιο, Θεσσαλονίκη",25,0,0,0,0,0.0,40.5972952,22.9497419
EL122,14/12/20,Π.Ε. Θεσσαλονίκης,Π.Ε. Θεσσαλονίκης,Thessaloniki,Θεσσαλονίκης,"Καυτατζόγλειο, Θεσσαλονίκη",30,3,2,1,57,10.0,40.6255005,22.9669699
EL231,14/12/20,Π.Ε. Αιτωλοακαρνανίας,Π.Ε. Αιτωλοακαρνανίας,Aetolia-Acarnania,Μεσολόγγι,"Χατζηκώστα 2, Μεσολόγγι",14,0,0,0,0,0.0,38.3743011,21.4406181
EL211,14/12/20,Π.Ε. Άρτας,Π.Ε. Άρτας,Arta,Ανέζα,Ανέζα Άρτας,78,0,0,0,0,0.0,39.0851375,20.9248782
EL111,14/12/20,Π.Ε. Έβρου,Π.Ε. Έβρου,Evros,Διδυμότειχο,Διδυμότειχο,140,8,2,6,34,5.7,41.3476492,26.4956372
EL213,14/12/20,Π.Ε. Ιωαννίνων,Π.Ε. Ιωαννίνων,Ioannina,Ιωάννινα,"Πλατεία Πύρρου, Ιωάννινα",232,1,1,0,22,0.4,39.663971,20.8525021
EL132,14/12/20,Π.Ε. Καστοριάς,Π.Ε. Καστοριάς,Kastoria,Καστοριάς,"Λεωφόρος Κύκνων 31, Καστοριά",38,2,1,1,59,5.3,40.5171372,21.255251
EL254,14/12/20,Π.Ε. Λακωνίας,Π.Ε. Λακωνίας,Laconia,Γύθειο,"Πλατεία Μαυροβούνι, Γύθειο",32,0,0,0,0,0.0,36.7381703,22.568497
EL142,14/12/20,Π.Ε. Λαρίσης,Π.Ε. Λαρίσης,Larissa,Λάρισας,Κεντρική Πλατεία Λάρισας,187,2,2,0,51,1.1,39.638305,22.4160043
EL124,14/12/20,Π.Ε. Πέλλας,Π.Ε. Πέλλας,Pella,Γαλατάδες,Γαλατάδες,74,0,0,0,0,0.0,40.7557799,22.2797854
EL124,14/12/20,Π.Ε. Πέλλας,Π.Ε. Πέλλας,Pella,Αριδαία,"ΚΤΕΛ Αριδαίας, Αριδαία",210,5,4,1,52,2.4,40.9745549,22.0656605
EL214,14/12/20,Π.Ε. Πρέβεζας,Π.Ε. Πρεβέζης,Preveza,Πάργα,Πάργα,93,0,0,0,0,0.0,39.2853344,20.4005005
EL144,14/12/20,Π.Ε. Τρικάλων,Π.Ε. Τρικάλων,Trikala,Τρίκαλα,Τρίκαλα,170,3,2,1,34,1.8,39.5557317,21.7678951
EL413,14/12/20,Π.Ε. Χίου,Ν. Δωδεκανήσου,Dodecanese,Χίου,Κόμβος Βολισσού - Λιμνίων,116,3,2,1,42,2.6,,
EL300,15/12/20,Π.Ε. Κεντρικού Τομέα Αθηνών,Περιφέρεια Αττικής,Attica,Αθήνα,Σταθμός Μετρό «Σύνταγμα»,160,0,0,0,0,0.0,37.9745068,23.7352651
EL300,15/12/20,Π.Ε. Νότιου Τομέα Αθηνών,Περιφέρεια Αττικής,Attica,Άλιμος,"Καλαμακίου και Ποσειδώνος, Άλιμος",314,0,0,0,0,0.0,37.9107838,23.7114445
EL300,15/12/20,Π.Ε. Δυτικού Τομέα Αθηνών,Περιφέρεια Αττικής,Attica,Αγία Βαρβάρα,"Ελευθερίου Βενιζέλου 3, Αγία Βαρβάρα",136,8,5,3,30,5.9,37.9987807,23.6653434
EL122,15/12/20,Π.Ε. Θεσσαλονίκης,Π.Ε. Θεσσαλονίκης,Thessaloniki,Θεσσαλονίκης,"Ποσειδώνιο, Θεσσαλονίκη",65,2,0,2,43,3.1,40.5972952,22.9497419
EL122,15/12/20,Π.Ε. Θεσσαλονίκης,Π.Ε. Θεσσαλονίκης,Thessaloniki,Θεσσαλονίκης,"Καυτατζόγλειο, Θεσσαλονίκη",102,5,1,4,43,4.9,40.6255005,22.9669699
EL231,15/12/20,Π.Ε. Αιτωλοακαρνανίας,Π.Ε. Αιτωλοακαρνανίας,Aetolia-Acarnania,Μεσολόγγι,"Παπαδιαμαντοπούλου 56, Μεσολόγγι",9,0,0,0,0,0.0,38.3808102,21.4262372
EL241,15/12/20,Π.Ε. Βοιωτίας,Π.Ε. Βοιωτίας,Boeotia,Θήβα,"Στρατηγού Βόγλη, Θήβα",95,1,1,0,65,1.1,38.3170304,23.3177829
EL254,15/12/20,Π.Ε. Λακωνίας,Π.Ε. Λακωνίας,Laconia,Γύθειο,Επαρχιακή Οδός Γυθείου - Αιγίων,58,0,0,0,0,0.0,36.7538837,22.5715944
EL142,15/12/20,Π.Ε. Λαρίσης,Π.Ε. Λαρίσης,Larissa,Λάρισας,Κεντρική Πλατεία Λάρισας,199,2,1,1,44,1.0,39.638305,22.4160043
EL411,15/12/20,Π.Ε. Λήμνου,Ν. Λέσβου,Lesbos,Μύρινα,"Κύδα 1, Μύρινα",67,0,0,0,0,0.0,39.8750731,25.0598161
EL111,15/12/20,Π.Ε. Μήλου,Π.Ε. Έβρου,Evros,Σίφνος,Δημοτικό Parking Σίφνου,194,0,0,0,0,0.0,36.7900306,24.5715395
EL221,15/12/20,Π.Ε. Μυκόνου,Ν. Κυκλάδων,Mykonos,Μύκονος,Μύκονος,27,0,0,0,0,0.0,37.4467354,25.3288845
EL112,15/12/20,Π.Ε. Ξάνθης,Π.Ε. Ξάνθης,Xanthi,Ξάνθης,"Βασιλίσσης Σοφίας 25, Ξάνθη",73,2,1,1,54,2.7,41.1436951,24.8930426
EL214,15/12/20,Π.Ε. Πρέβεζας,Π.Ε. Πρεβέζης,Preveza,Καναλάκι,"Αχέροντος 1, Καναλάκι, Πρέβεζα",70,0,0,0,0,0.0,39.2353893,20.5991666
EL421,15/12/20,Π.Ε. Ρόδου,Ν. Δωδεκανήσου,Dodecanese,Ρόδου,Νέα Μαρίνα Ρόδου,19,0,0,0,0,0.0,36.4326594,28.2382502
EL244,15/12/20,Π.Ε. Φθιώτιδας,Π.Ε. Φθιώτιδας,Phthiotis,Κάτω Τιθορέα,Κάτω Τιθορέα,161,0,0,0,0,0.0,38.6079741,22.7133309
EL127,15/12/20,Π.Ε. Χαλκιδικής,Π.Ε. Χαλκιδικής,Chalkidiki,Χαλκιδικής,"Μεγάλη Παναγιά, Χαλκιδική",160,0,0,0,0,0.0,40.4448171,23.6813175
EL300,16/12/20,Π.Ε. Κεντρικού Τομέα Αθηνών,Περιφέρεια Αττικής,Attica,Αθήνα,Σταθμός Μετρό «Σύνταγμα»,630,0,0,0,0,0.0,37.9745068,23.7352651
EL300,16/12/20,Π.Ε. Νότιου Τομέα,Περιφέρεια Αττικής,Attica,Άλιμος,"Καλαμακίου και Ποσειδώνος, Άλιμος",302,0,0,0,0,0.0,37.9107838,23.7114445
EL300,16/12/20,Π.Ε. Δυτικού Τομέα Αθηνών,Περιφέρεια Αττικής,Attica,Περιστέρι,"Αγίου Βασιλείου 60, Περιστέρι",492,5,2,3,38,1.0,38.0169749,23.6882587
EL122,16/12/20,Π.Ε. Θεσσαλονίκης,Π.Ε. Θεσσαλονίκης,Thessaloniki,Θεσσαλονίκης,"Ποσειδώνιο, Θεσσαλονίκη",90,2,0,2,29,2.2,40.5972952,22.9497419
EL211,16/12/20,Π.Ε. Άρτας,Π.Ε. Άρτας,Arta,Φιλοθέη,Φιλοθέη Άρτας,46,0,0,0,0,0.0,39.15,20.9
EL141,16/12/20,Π.Ε. Καρδίτσας,Π.Ε. Καρδίτσας,Karditsa,Καρδίτσας,Περιφερειακός Καρδιτσομαγούλας,171,8,6,2,44,4.7,39.3915625,21.9245288
EL422,16/12/20,Π.Ε. Πάρου,Ν. Κυκλάδων,Cyclades,Νάουσα,ΚΤΕΛ Νάουσας Πάρου,65,0,0,0,0,0.0,37.1213402,25.2387822
EL421,16/12/20,Π.Ε. Ρόδου,Ν. Δωδεκανήσου,Dodecanese,Κρεμαστή,"Λεωφόρος Ελευθερίας 1, Κρεμαστή Ρόδου",35,0,0,0,0,0.0,36.4149248,28.1332383
EL112,16/12/20,Π.Ε. Ξάνθης,Π.Ε. Ξάνθης,Xanthi,Ξάνθης,"Βασιλίσσης Σοφίας 25, Ξάνθη",172,6,3,3,37,3.5,41.1436951,24.8930426
EL114,16/12/20,Π.Ε. Δράμας,Π.Ε. Δράμας,Drama,Δράμας,Ανάπλαση Δράμας,184,1,0,1,43,0.5,41.1451398,24.1515474
EL132,16/12/20,Π.Ε. Καστοριάς,Π.Ε. Καστοριάς,Kastoria,Καστοριάς,"Λεωφόρος Κύκνων 31, Καστοριά",37,0,0,0,0,0.0,40.5171372,21.255251
EL127,16/12/20,Π.Ε. Χαλκιδικής,Π.Ε. Χαλκιδικής,Chalkidiki,Χαλκιδικής,"Παλιά Νομαρχία, Χαλκιδική",120,0,0,0,0,0.0,40.3694997,23.287085
EL124,16/12/20,Π.Ε. Πέλλας,Π.Ε. Πέλλας,Pella,Γιαννιτσά,Παλαίφυτο Γιαννιτσών,70,0,0,0,0,0.0,40.7832844,22.2735926
EL124,16/12/20,Π.Ε. Πέλλας,Π.Ε. Πέλλας,Pella,Γιαννιτσά,Νέος Μυλότοπος Γιαννιτσών,102,0,0,0,0,0.0,40.8193554,22.3558989
EL111,16/12/20,Π.Ε. Έβρου,Π.Ε. Έβρου,Evros,Σαμοθράκη,Λιμάνι Καμριώτισσα Σαμοθράκης,20,0,0,0,0,0.0,40.4738321,25.4737998
EL111,16/12/20,Π.Ε. Έβρου,Π.Ε. Έβρου,Evros,Ορεστιάδα,"Βασιλέως Κωνσταντίνου, Ορεστιάδα",274,3,1,2,38,1.1,41.5035436,26.5143542
EL254,16/12/20,Π.Ε. Λακωνίας,Π.Ε. Λακωνίας,Laconia,Σπάρτη,Ξηροκάμπι Σπάρτης,42,0,0,0,0,0.0,36.9593051,22.4522074
EL254,16/12/20,Π.Ε. Λακωνίας,Π.Ε. Λακωνίας,Laconia,Σπάρτη,Άγιοι Ανάργυροι Σπάρτης,29,0,0,0,0,0.0,37.0262277,22.6226026
EL411,16/12/20,Π.Ε. Λέσβου,Ν. Λέσβου,Lesbos,Λέσβου,"Πλατεί Νέων Κυδωνιών, Λέσβος",55,0,0,0,0,0.0,39.2278778,26.4409812
EL252,16/12/20,Π.Ε. Αρκαδίας,Π.Ε. Αρκαδίας,Arcadia,Τρίπολη,"Τρίπολη, Αρκαδία",49,0,0,0,0,0.0,37.5101357,22.372644
EL252,16/12/20,Π.Ε. Αρκαδίας,Π.Ε. Αρκαδίας,Arcadia,Μεγαλόπολη,Μεγαλόπολη Αρκαδίας,48,0,0,0,0,0.0,37.401244,22.1364871
EL413,16/12/20,Π.Ε. Χίου,Ν. Δωδεκανήσου,Dodecanese,Χίου,"Ιωνικό Κολυμβητήριο, Χίος",100,2,0,2,17,2.0,38.3308941,26.1438283
EL300,17/12/20,Π.Ε. Νότιου Τομέα,Περιφέρεια Αττικής,Attica,Άλιμος,"Καλαμακίου και Ποσειδώνος, Άλιμος",378,2,2,0,37,0.5,37.9107838,23.7114445
EL300,17/12/20,Π.Ε. Πειραιώς,Περιφέρεια Αττικής,Attica,Νίκαια,"Αθηνάς και Σπυρίδωνος, Νίκαια",262,1,1,0,38,0.4,37.9700951,23.7428371
EL122,17/12/20,Π.Ε. Θεσσαλονίκης,Π.Ε. Θεσσαλονίκης,Thessaloniki,Θεσσαλονίκης,"Ποσειδώνιο, Θεσσαλονίκη",78,3,1,2,54,3.8,40.5972952,22.9497419
EL122,17/12/20,Π.Ε. Θεσσαλονίκης,Π.Ε. Θεσσαλονίκης,Thessaloniki,Θεσσαλονίκης,"Καυτατζόγλειο, Θεσσαλονίκη",101,0,0,0,0,0.0,40.6255005,22.9669699
EL231,17/12/20,Π.Ε. Αιτωλοακαρνανίας,Π.Ε. Αιτωλοακαρνανίας,Aetolia-Acarnania,Ναύπακτος,Ναύπακτος,98,0,0,0,0,0.0,38.3929775,21.8348729
EL141,17/12/20,Π.Ε. Καρδίτσας,Π.Ε. Καρδίτσας,Karditsa,Μουζάκι,"Μουζάκι, Καρδίτσας",67,0,0,0,0,0.0,39.4150441,21.7376178
EL142,17/12/20,Π.Ε. Λαρίσης,Π.Ε. Λαρίσης,Larissa,Λάρισας,"Πλατεία Κουλούρι, Λάρισα",11,0,0,0,0,0.0,39.638565,22.4131631
EL142,17/12/20,Π.Ε. Λαρίσης,Π.Ε. Λαρίσης,Larissa,Φαλάνη,"Φαλάνη, Λάρισας",76,1,0,1,46,1.3,39.6476956,22.4158974
EL124,17/12/20,Π.Ε. Πέλλας,Π.Ε. Πέλλας,Pella,Έδεσσα,Έδεσσα,101,0,0,0,0,0.0,40.8016803,22.0439798
EL124,17/12/20,Π.Ε. Πέλλας,Π.Ε. Πέλλας,Pella,Γιαννιτσά,Γιαννιτσά,23,1,0,1,35,4.3,40.7943587,22.4144481
EL421,17/12/20,Π.Ε. Ρόδου,Ν. Δωδεκανήσου,Dodecanese,Ρόδου,"Διασταύρωση Φαληράκι - Καλυθιές, Ρόδος",54,0,0,0,0,0.0,36.3354943,28.1757705
EL244,17/12/20,Π.Ε. Φθιώτιδας,Π.Ε. Φθιώτιδας,Phthiotis,Λαμία,"Φιλίας 10, Λαμία",187,2,1,1,41,1.1,38.8890753,22.4482919
EL127,17/12/20,Π.Ε. Χαλκιδικής,Π.Ε. Χαλκιδικής,Chalkidiki,Χαλκιδικής,Συκιά Χαλκιδικής,24,3,1,2,50,12.5,40.0385165,23.9395054
EL300,19/12/20,Π.Ε. Δυτικής Αττικής,Περιφέρεια Αττικής,Attica,Ασπρόπυργος,"Γκορυτσά Ψάρι, Ασπρόπυργος",343,13,0,0,0,3.8,38.0774324,23.5698643
EL300,19/12/20,Π.Ε. Δυτικής Αττικής,Περιφέρεια Αττικής,Attica,Μέγαρα,Μέγαρα,420,4,0,0,0,1.0,37.9943201,23.3430496
EL300,19/12/20,Π.Ε. Νότιου Τομέα,Περιφέρεια Αττικής,Attica,Άλιμος,Άλιμος,383,0,0,0,0,0.0,37.9131232,23.7303627
EL300,20/12/20,Π.Ε. Δυτικής Αττικής,Περιφέρεια Αττικής,Attica,Ελευσίνα,"Δημοτικό parking, Ελευσίνα",663,4,3,1,44,0.6,38.0443993,23.5426783
EL300,20/12/20,Π.Ε. Δυτικής Αττικής,Περιφέρεια Αττικής,Attica,Μαγούλα,"Δημοτικό ιατρείο Μαγούλας, Μαγούλα",340,4,2,2,30,1.2,38.0790354,23.5215964
EL300,20/12/20,Π.Ε. Δυτικής Αττικής,Περιφέρεια Αττικής,Attica,Μάνδρα,"Πλατεία Γκλιάτη, Μάνδρα",327,0,0,0,0,0.0,38.0786428,23.4919377
EL300,20/12/20,Π.Ε. Δυτικής Αττικής,Περιφέρεια Αττικής,Attica,Ασπρόπυργος,"Οικισμός Ρομά Νεόκτιστα, Ασπρόπυργος",101,0,0,0,0,0.0,38.0768823,23.6357338
EL300,20/12/20,Π.Ε. Δυτικής Αττικής,Περιφέρεια Αττικής,Attica,Ασπρόπυργος,"Οικισμός Ρομά Νέα Ζωή, Ασπρόπυργος",112,4,1,3,48,3.6,38.0768823,23.6357338
EL133,20/12/20,Π.Ε. Κοζάνης,Π.Ε. Κοζάνης,Kozani,Νεάπολη,"Νεάπολη, Κοζάνη",79,4,2,2,42,5.1,40.3130857,21.3868617
EL133,20/12/20,Π.Ε. Κοζάνης,Π.Ε. Κοζάνης,Kozani,Εράτυρα,"Εράτυρα, Κοζάνη",86,0,0,0,0,0.0,40.3418956,21.5118754
EL143,20/12/20,Π.Ε. Σποράδων,Ν. Μαγνησίας,Magnesia,Σκιάθος,Σκιάθος,24,0,0,0,0,0.0,39.16352,23.4901667
EL141,20/12/20,Π.Ε. Καρδίτσας,Π.Ε. Καρδίτσας,Karditsa,Παλαμάς,"Δημοτική Ενότητα Φυλλου, Παλαμάς Κοζάνης",132,1,0,1,88,0.8,39.4690329,22.082317
EL141,20/12/20,Π.Ε. Καρδίτσας,Π.Ε. Καρδίτσας,Karditsa,Παλαμάς,"Δημοτική Ενότητα Σελλάνων, Παλαμάς Κοζάνης",62,0,0,0,0,0.0,40.3177468,21.7376178
EL253,20/12/20,Π.Ε. Κορινθίας,Π.Ε. Κορινθίας,Corinthia,Κόρινθος,"Επαρχιακή οδός Γουρά - Φενεού, Κόρινθος",28,0,0,0,0,0.0,37.938752,22.339721
EL421,20/12/20,Π.Ε. Ρόδου,Ν. Δωδεκανήσου,Dodecanese,Μανδράκι,Μανδράκι Ρόδου,100,1,1,0,53,1.0,36.4492793,28.2248777
EL244,20/12/20,Π.Ε. Φθιώτιδας,Π.Ε. Φθιώτιδας,Phthiotis,Λαμία,Λαμία,360,3,1,2,59,0.8,38.8997323,22.4336668
EL244,20/12/20,Π.Ε. Φθιώτιδας,Π.Ε. Φθιώτιδας,Phthiotis,Άγιος Γεώργιος Τυμφρηστού,"Άγιος Γεώργιος Τυμφρηστού, Φθιώτιδα",60,0,0,0,0,0.0,38.95,21.95
EL122,20/12/20,Π.Ε. Θεσσαλονίκης,Π.Ε. Θεσσαλονίκης,Thessaloniki,Θεσσαλονίκης,"Ποσειδώνιο, Θεσσαλονίκη",81,2,1,1,42,2.5,40.5972952,22.9497419
EL122,20/12/20,Π.Ε. Θεσσαλονίκης,Π.Ε. Θεσσαλονίκης,Thessaloniki,Θεσσαλονίκης,"Καυτατζόγλειο, Θεσσαλονίκη",62,0,0,0,0,0.0,40.6255005,22.9669699
EL125,21/12/20,Π.Ε. Πιερίας,Π.Ε. Πιερίας,Pieria,Κατερίνη,Εμποροπανήγυρη Κατερίνης,118,4,2,2,45,3.4,40.2702495,22.5121487
EL112,21/12/20,Π.Ε. Ξάνθης,Π.Ε. Ξάνθης,Xanthi,Ξάνθης,"Βασιλίσσης Σοφίας 25, Ξάνθη",125,11,5,6,40,8.8,41.1436951,24.8930426
EL112,21/12/20,Π.Ε. Ξάνθης,Π.Ε. Ξάνθης,Xanthi,Γλαύκη,Γλαύκη Ξάνθης,6,0,0,0,0,0.0,41.265576,24.927216
EL127,21/12/20,Π.Ε. Χαλκιδικής,Π.Ε. Χαλκιδικής,Chalkidiki,Ζερβοχώρια,Ζερβοχώρια Χαλκιδικής,83,0,0,0,0,0.0,40.5075933,23.4537973
EL254,21/12/20,Π.Ε. Λακωνίας,Π.Ε. Λακωνίας,Laconia,Καστοριάς,Καστόρι Λακωνίας,95,0,0,0,0,0.0,37.1703356,22.304741
EL124,21/12/20,Π.Ε. Πέλλας,Π.Ε. Πέλλας,Pella,Αλμώπια,Αλμώπια Πέλλας,21,0,0,0,0,0.0,41.039781,22.0953297
EL133,21/12/20,Π.Ε. Κοζάνης,Π.Ε. Κοζάνης,Kozani,Πτολεμαΐδα,Πτολεμαΐδα,209,1,1,0,60,0.5,40.5129968,21.6784663
EL413,21/12/20,Π.Ε. Χίου,Ν. Δωδεκανήσου,Dodecanese,Χίου,Δασκαλόπετρα Χίου,109,0,0,0,0,0.0,38.4206871,26.1339175
EL111,21/12/20,Π.Ε. Τήνου,Π.Ε. Έβρου,Evros,Τήνος,Τήνος,91,0,0,0,0,0.0,37.5773408,25.1652008
EL300,21/12/20,Π.Ε. Νότιου Τομέα Αθηνών,Περιφέρεια Αττικής,Attica,Καλλιθέα,Καλλιθέα,244,2,1,1,32,0.8,37.955893,23.7020975
EL300,21/12/20,Π.Ε. Κεντρικού Τομέα Αθηνών,Περιφέρεια Αττικής,Attica,Αθήνα,Σταθμός Μετρό «Σύνταγμα»,491,0,0,0,0,0.0,37.9745068,23.7352651
EL300,21/12/20,Π.Ε. Δυτικής Αττικής,Περιφέρεια Αττικής,Attica,Μάνδρα,Μάνδρα,143,0,0,0,0,0.0,38.0750425,23.5008508
EL300,21/12/20,Π.Ε. Δυτικής Αττικής,Περιφέρεια Αττικής,Attica,Μέγαρα,Μέγαρα,294,2,1,1,32,0.7,37.9943201,23.3430496
EL111,21/12/20,Π.Ε. Έβρου,Π.Ε. Έβρου,Evros,Αλεξανδρούπολη,Αλεξανδρούπολη,135,0,0,0,0,0.0,40.8457193,25.873962
EL131,21/12/20,Π.Ε. Γρεβενών,Π.Ε. Γρεβενών,Grevena,Ποντίνη,Ποντίνη Γρεβενών,49,0,0,0,0,0.0,40.0709184,21.6780793
EL244,21/12/20,Π.Ε. Φθιώτιδας,Π.Ε. Φθιώτιδας,Phthiotis,Καμένα Βούρλα,Καμένα Βούρλα,211,0,0,0,0,0.0,38.776025,22.7813611
EL113,21/12/20,Π.Ε. Ροδόπης,Π.Ε. Ροδόπης,Rhodope,Κομοτηνή,Κομοτηνή,36,3,1,2,58,8.3,41.1224394,25.4065582
EL132,21/12/20,Π.Ε. Καστοριάς,Π.Ε. Καστοριάς,Kastoria,Καστοριάς,"Λεωφόρος Κύκνων 31, Καστοριά",58,0,0,0,0,0.0,40.5171372,21.255251
EL142,21/12/20,Π.Ε. Λαρίσης,Π.Ε. Λαρίσης,Larissa,Νέα Σμύρνη,Νέα Σμύρνη Λάρισας,169,0,0,0,0,0.0,39.6487056,22.4306991
EL142,21/12/20,Π.Ε. Λαρίσης,Π.Ε. Λαρίσης,Larissa,Αμπελώνα,Αμπελώνας Λάρισας,59,0,0,0,0,0.0,39.7451063,22.3615771
EL142,21/12/20,Π.Ε. Λαρίσης,Π.Ε. Λαρίσης,Larissa,Νίκαια,Νίκαια Λάρισας,122,0,0,0,0,0.0,39.4698244,22.4529878
EL421,21/12/20,Π.Ε. Κω,Ν. Δωδεκανήσου,Dodecanese,Κεφάλου,Κεφάλου Κως,54,0,0,0,0,0.0,36.7445146,26.9591755
EL144,21/12/20,Π.Ε. Τρικάλων,Π.Ε. Τρικάλων,Trikala,Τρίκαλα,Τρίκαλα,204,0,0,0,0,0.0,39.5557317,21.7678951
EL231,21/12/20,Π.Ε. Αιτωλοακαρνανίας,Π.Ε. Αιτωλοακαρνανίας,Aetolia-Acarnania,Μεσολόγγι,Μεσολόγγι,10,0,0,0,0,0.0,38.3686739,21.430415
EL211,21/12/20,Π.Ε. Άρτας,Π.Ε. Άρτας,Arta,Άρτας,Δημαρχείο Άρτας,197,0,0,0,0,0.0,39.1571388,20.9792332
EL421,21/12/20,Π.Ε. Ρόδου,Ν. Δωδεκανήσου,Dodecanese,Αρχάγγελος,Αρχάγγελος Ρόδου,175,0,0,0,0,0.0,36.2145292,28.116926
EL411,21/12/20,Π.Ε. Λήμνου,Ν. Λέσβου,Lesbos,Μύρινα,Μύρινα Λήμνου,38,0,0,0,0,0.0,39.875265,25.063448
EL122,21/12/20,Π.Ε. Θεσσαλονίκης,Π.Ε. Θεσσαλονίκης,Thessaloniki,Θεσσαλονίκης,Καλαμαριά Θεσσαλονίκης,183,2,1,1,42,1.1,40.5785429,22.9594983
EL122,21/12/20,Π.Ε. Θεσσαλονίκης,Π.Ε. Θεσσαλονίκης,Thessaloniki,Θεσσαλονίκης,"Ποσειδώνιο, Θεσσαλονίκη",86,2,2,0,55,2.3,40.5972952,22.9497419
EL122,21/12/20,Π.Ε. Θεσσαλονίκης,Π.Ε. Θεσσαλονίκης,Thessaloniki,Θεσσαλονίκης,"Καυτατζόγλειο, Θεσσαλονίκη",72,1,1,0,25,1.4,40.6255005,22.9669699
EL300,22/12/20,Π.Ε. Κεντρικού Τομέα Αθηνών,Περιφέρεια Αττικής,Attica,Αθήνα,Σταθμός Μετρό «Σύνταγμα»,386,1,1,0,22,0.3,37.9745068,23.7352651
EL300,22/12/20,Π.Ε. Δυτικής Αττικής,Περιφέρεια Αττικής,Attica,Μάνδρα,Μάνδρα,203,1,1,0,31,0.5,38.0750425,23.5008508
EL300,22/12/20,Π.Ε. Δυτικής Αττικής,Περιφέρεια Αττικής,Attica,Φυλή,"Φυλή, Αττική",108,2,2,0,56,1.9,38.102909,23.6690367
EL300,22/12/20,Π.Ε. Δυτικού Τομέα Αθηνών,Περιφέρεια Αττικής,Attica,Ίλιον,Ίλιον,521,5,3,2,60,1.0,38.0379077,23.705349
EL300,22/12/20,Π.Ε. Πειραιώς,Περιφέρεια Αττικής,Attica,Πέραμα,Πέραμα,130,1,1,0,48,0.8,37.9656089,23.5677089
EL122,22/12/20,Π.Ε. Θεσσαλονίκης,Π.Ε. Θεσσαλονίκης,Thessaloniki,Καλαμαριά,Καλαμαριά Θεσσαλονίκης,240,0,0,0,0,0.0,40.5785429,22.9594983
EL122,22/12/20,Π.Ε. Θεσσαλονίκης,Π.Ε. Θεσσαλονίκης,Thessaloniki,Θεσσαλονίκης,"Ποσειδώνιο, Θεσσαλονίκη",86,0,0,0,0,0.0,40.5972952,22.9497419
EL122,22/12/20,Π.Ε. Θεσσαλονίκης,Π.Ε. Θεσσαλονίκης,Thessaloniki,Θεσσαλονίκης,"Καυτατζόγλειο, Θεσσαλονίκη",68,1,1,0,51,1.5,40.6255005,22.9669699
EL122,22/12/20,Π.Ε. Θεσσαλονίκης,Π.Ε. Θεσσαλονίκης,Thessaloniki,Θέρμη,Θέρμη Θεσσαλονίκης,161,0,0,0,0,0.0,40.5485201,23.019646
EL122,22/12/20,Π.Ε. Θεσσαλονίκης,Π.Ε. Θεσσαλονίκης,Thessaloniki,Αμπελόκηποι,Αμπελόκηποι Θεσσαλονίκης,114,1,0,1,24,0.9,40.6536074,22.9223719
EL124,22/12/20,Π.Ε. Πέλλας,Π.Ε. Πέλλας,Pella,Άρνισσα,Άρνισσα Γιαννιτσών,37,0,0,0,0,0.0,40.7943587,22.4144481
EL124,22/12/20,Π.Ε. Πέλλας,Π.Ε. Πέλλας,Pella,Αράβησσος,Αράβησσος Γιαννιτσών,101,2,2,0,57,2.0,40.8437383,22.2997708
EL141,22/12/20,Π.Ε. Καρδίτσας,Π.Ε. Καρδίτσας,Karditsa,Πρόδρομος,Πρόδρομος Καρδίτσας,98,2,1,1,54,2.0,39.3743866,21.9759513
EL142,22/12/20,Π.Ε. Λαρίσης,Π.Ε. Λαρίσης,Larissa,Φάρσαλα,Φάρσαλα Λαρίσης,119,2,2,0,56,1.7,39.2987116,22.3844801
EL142,22/12/20,Π.Ε. Λαρίσης,Π.Ε. Λαρίσης,Larissa,Νεάπολη,"Σκεπαστή αγορά Νεάπολης, Λάρισα",118,0,0,0,0,0.0,39.6189242,22.4028242
EL222,22/12/20,Π.Ε. Κέρκυρας,Π.Ε. Κέρκυρας,Corfu (Kerkyra),Αραχάβη,"Δημαρχείο Αραχάβης, Κέρκυρα",66,0,0,0,0,0.0,39.7906262,19.8153706
EL213,22/12/20,Π.Ε. Ιωαννίνων,Π.Ε. Ιωαννίνων,Ioannina,Ιωάννινα,"Πλατεία Πύρρου, Ιωάννινα",160,0,0,0,0,0.0,39.663971,20.8525021
EL127,22/12/20,Π.Ε. Χαλκιδικής,Π.Ε. Χαλκιδικής,Chalkidiki,Ιερισσός,Ιερισσός Χαλκιδικής,124,0,0,0,0,0.0,40.3975466,23.8766837
EL253,22/12/20,Π.Ε. Κορινθίας,Π.Ε. Κορινθίας,Corinthia,Κρυονέρι,"Κρυονέρι, Κορινθίας",119,0,0,0,0,0.0,37.866667,22.583333
EL411,22/12/20,Π.Ε. Λέσβου,Ν. Λέσβου,Lesbos,Μυτιλήνη,"Λιμάνι Μυτιλήνης, Λέσβος",257,0,0,0,0,0.0,39.1050856,26.5623299
EL244,22/12/20,Π.Ε. Φθιώτιδας,Π.Ε. Φθιώτιδας,Phthiotis,Λαμία,"Λαμία, Φθιώτιδα",188,2,1,1,52,1.1,38.8997323,22.4336668
EL125,22/12/20,Π.Ε. Πιερίας,Π.Ε. Πιερίας,Pieria,Λιτόχωρο,Λιτόχωρο Πιερίας,49,0,0,0,0,0.0,40.1029473,22.5026117
EL125,22/12/20,Π.Ε. Πιερίας,Π.Ε. Πιερίας,Pieria,Ελατοχώρι,Ελατοχώρι Πιερίας,76,0,0,0,0,0.0,40.3196277,22.2658669
EL125,22/12/20,Π.Ε. Πιερίας,Π.Ε. Πιερίας,Pieria,Κατερίνη,"Ανδρομάχη Κατερίνης, Πιερία",116,1,0,1,64,0.9,40.272567,22.4801249
EL411,22/12/20,Π.Ε. Λήμνου,Ν. Λέσβου,Lesbos,Λήμνου,Μύρινα Λήμνου,7,0,0,0,0,0.0,39.875265,25.063448
EL133,22/12/20,Π.Ε. Κοζάνης,Π.Ε. Κοζάνης,Kozani,Εορδαία,"Καρυοχώρι Εορδαίας, Κοζάνη",80,0,0,0,0,0.0,40.5035068,21.7758468
EL133,22/12/20,Π.Ε. Κοζάνης,Π.Ε. Κοζάνης,Kozani,Εορδαία,"Πύργος Εορδαίας, Κοζάνη",28,1,0,1,57,3.6,40.2233048,21.8962649
EL413,22/12/20,Π.Ε. Χίου,Ν. Δωδεκανήσου,Dodecanese,Χίου,"Εκθεσιακό Κέντρο Καλουτά, Χίος",90,0,0,0,0,0.0,38.3270217,26.1194433
EL422,22/12/20,Π.Ε. Πάρου,Ν. Κυκλάδων,Cyclades,Παροικιά,Παροικιά Πάρου,53,0,0,0,0,0.0,37.0856432,25.1488318
EL231,22/12/20,Π.Ε. Αιτωλοακαρνανίας,Π.Ε. Αιτωλοακαρνανίας,Aetolia-Acarnania,Μεσολόγγι,Μεσολόγγι,24,0,0,0,0,0.0,38.3686739,21.430415
EL421,22/12/20,Π.Ε. Ρόδου,Ν. Δωδεκανήσου,Dodecanese,Αρχάγγελος,Αρχάγγελος Ρόδου,160,0,0,0,0,0.0,36.2145292,28.116926
EL433,22/12/20,Π.Ε. Ρεθύμνου,Π.Ε. Ρεθύμνης,Rethymno,Ρέθυμνο,Ρέθυμνο,22,0,0,0,0,0.0,35.3655545,24.4919838
EL121,22/12/20,Π.Ε. Ημαθίας,Π.Ε. Ημαθίας,Imathia,Βέροια,Βέροια,212,1,1,0,48,0.5,40.5193618,22.2052162
EL112,22/12/20,Π.Ε. Ξάνθης,Π.Ε. Ξάνθης,Xanthi,Ξάνθης,Ξάνθη,192,5,3,2,35,2.6,41.1362513,24.8877024
EL434,22/12/20,Π.Ε. Χανίων,Π.Ε. Χανίων,Chania,Βρύσες,"Πλατεία Ηρώων, Βρύσες, Χανιά",213,0,0,0,0,0.0,35.369675,24.4699662
EL115,22/12/20,Π.Ε. Θάσου,Ν. Καβάλας,Kavala,Ποταμιά,Ποταμιά Θάσου,54,0,0,0,0,0.0,40.7166567,24.7290073
EL300,23/12/20,Π.Ε. Κεντρικού Τομέα Αθηνών,Περιφέρεια Αττικής,Attica,Σύνταγμα,Σταθμός Μετρό «Σύνταγμα»,455,0,0,0,0,0.0,37.9745068,23.7352651
EL300,23/12/20,Π.Ε. Δυτικής Αττικής,Περιφέρεια Αττικής,Attica,Φυλή,"Φυλή, Αττική",328,7,4,3,45,2.1,38.102909,23.6690367
EL300,23/12/20,Π.Ε. Νότιου Τομέα Αθηνών,Περιφέρεια Αττικής,Attica,Παλαιό Φάληρο,"Παλαιό Φάληρο, Αττική",437,0,0,0,0,0.0,37.9319317,23.7008044
EL122,23/12/20,Π.Ε. Θεσσαλονίκης,Π.Ε. Θεσσαλονίκης,Thessaloniki,Καλαμαριά,Καλαμαριά Θεσσαλονίκης,282,1,1,0,67,0.4,40.5785429,22.9594983
EL122,23/12/20,Π.Ε. Θεσσαλονίκης,Π.Ε. Θεσσαλονίκης,Thessaloniki,Θεσσαλονίκης,"Ποσειδώνιο, Θεσσαλονίκη",140,0,0,0,0,0.0,40.5972952,22.9497419
EL122,23/12/20,Π.Ε. Θεσσαλονίκης,Π.Ε. Θεσσαλονίκης,Thessaloniki,Θεσσαλονίκης,"Καυτατζόγλειο, Θεσσαλονίκη",114,1,0,1,47,0.9,40.6255005,22.9669699
EL122,23/12/20,Π.Ε. Θεσσαλονίκης,Π.Ε. Θεσσαλονίκης,Thessaloniki,Θέρμη,Θέρμη Θεσσαλονίκης,221,1,1,0,50,0.5,40.5485201,23.019646
EL122,23/12/20,Π.Ε. Θεσσαλονίκης,Π.Ε. Θεσσαλονίκης,Thessaloniki,Αμπελόκηποι,Αμπελόκηποι Θεσσαλονίκης,135,0,0,0,0,0.0,40.6536074,22.9223719
EL422,23/12/20,Π.Ε. Πάρου,Ν. Κυκλάδων,Cyclades,Νάουσα,ΚΤΕΛ Νάουσας Πάρου,17,0,0,0,0,0.0,37.1213402,25.2387822
EL422,23/12/20,Π.Ε. Πάρου,Ν. Κυκλάδων,Cyclades,Παροικιά,"Λιμάνι Παροικιάς, Πάρος",7,0,0,0,0,0.0,37.0863741,25.1483438
EL421,23/12/20,Π.Ε. Ρόδου,Ν. Δωδεκανήσου,Dodecanese,Αρχάγγελος,Αρχάγγελος Ρόδου,129,0,0,0,0,0.0,36.2145292,28.116926
EL241,23/12/20,Π.Ε. Βοιωτίας,Π.Ε. Βοιωτίας,Boeotia,Θεσπιές,Θεσπιές Βοιωτίας,90,3,0,3,50,3.3,38.3036718,23.1500584
EL143,23/12/20,Π.Ε. Μαγνησίας,Ν. Μαγνησίας,Magnesia,Βόλος,Πανθεσσαλικό Στάδιο Βόλου,124,1,1,0,43,0.8,39.3874845,22.930828
EL143,23/12/20,Π.Ε. Μαγνησίας,Ν. Μαγνησίας,Magnesia,Πήλιο,"Τρικέρι, Πήλιο",23,0,0,0,0,0.0,39.4383333,23.0475
EL141,23/12/20,Π.Ε. Καρδίτσας,Π.Ε. Καρδίτσας,Karditsa,Καρδίτσας,"Καρυοχώρι Εορδαίας, Κοζάνη",326,1,1,0,24,0.3,40.5035068,21.7758468
EL213,23/12/20,Π.Ε. Ιωαννίνων,Π.Ε. Ιωαννίνων,Ioannina,Ιωάννινα,Ιωάννινα,70,0,0,0,0,0.0,39.6650288,20.8537466
EL142,23/12/20,Π.Ε. Λάρισας,Π.Ε. Λαρίσης,Larissa,Ελασσόνα,Ελασσόνα Λάρισας,120,0,0,0,0,0.0,39.8949802,22.1890872
EL142,23/12/20,Π.Ε. Λάρισας,Π.Ε. Λαρίσης,Larissa,Πλατύκαμπο,Πλατύκαμπο Λάρισας,76,0,0,0,0,0.0,39.6447434,22.4365144
EL231,23/12/20,Π.Ε. Αιτωλοακαρνανίας,Π.Ε. Αιτωλοακαρνανίας,Aetolia-Acarnania,Ναύπακτος,Ναύπακτος,23,0,0,0,0,0.0,38.3929775,21.8348729
EL132,23/12/20,Π.Ε. Καστοριάς,Π.Ε. Καστοριάς,Kastoria,Καστοριάς,"Λεωφόρος Κύκνων 31, Καστοριά",74,0,0,0,0,0.0,40.5171372,21.255251
EL114,23/12/20,Π.Ε. Δράμας,Π.Ε. Δράμας,Drama,Δράμας,Δράμα,151,1,1,0,51,0.7,41.1502273,24.1469489
EL253,23/12/20,Π.Ε. Κορινθίας,Π.Ε. Κορινθίας,Corinthia,Ξυλόκαστρο,"Ξυλόκαστρο, Κορινθία",176,0,0,0,0,0.0,38.0772641,22.6326975
EL112,23/12/20,Π.Ε. Ξάνθης,Π.Ε. Ξάνθης,Xanthi,Ξάνθης,Ξάνθη,100,3,2,1,40,3.0,41.1362513,24.8877024
EL252,23/12/20,Π.Ε. Αρκαδίας,Π.Ε. Αρκαδίας,Arcadia,Τρίπολη,"Τρίπολη, Αρκαδία",405,0,0,0,0,0.0,37.5101357,22.372644
EL124,23/12/20,Π.Ε. Πέλλας,Π.Ε. Πέλλας,Pella,Γιαννιτσά,"Εσωβάλτα Γιαννιτσών, Πέλλα",13,0,0,0,0,0.0,40.7067559,22.2635361
EL124,23/12/20,Π.Ε. Πέλλας,Π.Ε. Πέλλας,Pella,Γιαννιτσά,"Σταυροδρόμι Γιαννιτσών, Πέλλα",14,0,0,0,0,0.0,40.7117156,22.2169829
EL124,23/12/20,Π.Ε. Πέλλας,Π.Ε. Πέλλας,Pella,Γιαννιτσά,"Ακρολίμνη Γιαννιτσών, Πέλλα",56,0,0,0,0,0.0,40.7943587,22.4144481
EL124,23/12/20,Π.Ε. Πέλλας,Π.Ε. Πέλλας,Pella,Νέα Πέλλα,Νέα Πέλλα,79,0,0,0,0,0.0,40.7655701,22.4916502
EL133,23/12/20,Π.Ε. Κοζάνης,Π.Ε. Κοζάνης,Kozani,Κοζάνης,Γαλατίνη Κοζάνης,75,2,1,1,23,2.7,40.3184424,21.5517509
EL133,23/12/20,Π.Ε. Κοζάνης,Π.Ε. Κοζάνης,Kozani,Κοζάνης,Τσοτύλι Κοζάνης,96,2,1,1,47,2.1,40.262269,21.3246864
EL131,23/12/20,Π.Ε. Γρεβενών,Π.Ε. Γρεβενών,Grevena,Γρεβενών,Δεσκάτη Γρεβενών,69,0,0,0,0,0.0,39.9257032,21.8101429
EL125,23/12/20,Π.Ε. Πιερίας,Π.Ε. Πιερίας,Pieria,Αιγίνιο,Αιγίνιο Πιερίας,127,0,0,0,0,0.0,40.4989376,22.5415237
EL125,23/12/20,Π.Ε. Πιερίας,Π.Ε. Πιερίας,Pieria,Κατερίνη,Κατερίνη,110,0,0,0,0,0.0,40.2702495,22.5121487
EL413,23/12/20,Π.Ε. Χίου,Ν. Δωδεκανήσου,Dodecanese,Χίου,"Ιωνικό Κολυμβητήριο, Χίος",133,1,1,0,47,0.8,38.3308941,26.1438283
EL214,23/12/20,Π.Ε. Πρέβεζας,Π.Ε. Πρεβέζης,Preveza,Πρέβεζας,Πρέβεζα,66,0,0,0,0,0.0,38.9592649,20.7517155
EL245,23/12/20,Π.Ε. Φωκίδας,Π.Ε. Φωκίδας,Phocis,Άφισσα,Άμφισσα,30,0,0,0,0,0.0,38.5276679,22.3781527
EL134,23/12/20,Π.Ε. Φλώρινας,Π.Ε. Φλώρινας,Florina,Φλώρινας,Φλώρινα,27,8,5,3,52,29.6,40.7845262,21.4131222
EL300,24/12/20,Π.Ε. Κεντρικού Τομέα Αθηνών,Περιφέρεια Αττικής,Attica,Σύνταγμα,Σταθμός Μετρό «Σύνταγμα»,431,1,1,0,34,0.2,37.9745068,23.7352651
EL300,24/12/20,Π.Ε. Κεντρικού Τομέα Αθηνών,Περιφέρεια Αττικής,Attica,Βύρωνας,"Βύρωνας, Αθήνα",439,2,2,0,23,0.5,37.9592596,23.7563687
EL300,24/12/20,Π.Ε. Βόρειου Τομέα Αθηνών,Περιφέρεια Αττικής,Attica,Νέα Ιωνία,"Νέα Ιωνία, Αθήνα",317,1,1,0,42,0.3,38.0426062,23.7536323
EL300,24/12/20,Π.Ε. Δυτικής Αττικής,Περιφέρεια Αττικής,Attica,Ασπρόπυργος,Ασπρόπυργος,335,9,4,5,46,2.7,38.0609063,23.5910603
EL122,24/12/20,Π.Ε. Θεσσαλονίκης,Π.Ε. Θεσσαλονίκης,Thessaloniki,Καλαμαριά,Καλαμαριά Θεσσαλονίκης,250,4,2,2,34,1.6,40.5785429,22.9594983
EL122,24/12/20,Π.Ε. Θεσσαλονίκης,Π.Ε. Θεσσαλονίκης,Thessaloniki,Θεσσαλονίκης,"Ποσειδώνιο, Θεσσαλονίκη",112,0,0,0,0,0.0,40.5972952,22.9497419
EL122,24/12/20,Π.Ε. Θεσσαλονίκης,Π.Ε. Θεσσαλονίκης,Thessaloniki,Θεσσαλονίκης,"Καυτατζόγλειο, Θεσσαλονίκη",109,3,3,0,47,2.8,40.6255005,22.9669699
EL122,24/12/20,Π.Ε. Θεσσαλονίκης,Π.Ε. Θεσσαλονίκης,Thessaloniki,Θέρμη,Θέρμη Θεσσαλονίκης,247,0,0,0,0,0.0,40.5485201,23.019646
EL122,24/12/20,Π.Ε. Θεσσαλονίκης,Π.Ε. Θεσσαλονίκης,Thessaloniki,Αμπελόκηποι,Αμπελόκηποι Θεσσαλονίκης,160,3,1,2,35,1.9,40.6536074,22.9223719
EL422,24/12/20,Π.Ε. Σύρου,Ν. Κυκλάδων,Cyclades,Χρούσα,"Χρούσα, Σύρος",48,0,0,0,0,0.0,37.3989341,24.9237097
EL421,24/12/20,Π.Ε. Ρόδου,Ν. Δωδεκανήσου,Dodecanese,Αρχάγγελος,Αρχάγγελος Ρόδου,116,0,0,0,0,0.0,36.2145292,28.116926
EL422,24/12/20,Π.Ε. Πάρου,Ν. Κυκλάδων,Cyclades,Παροικιά,Παροικιά Πάρου,31,0,0,0,0,0.0,37.0856432,25.1488318
EL411,24/12/20,Π.Ε. Λήμνου,Ν. Λέσβου,Lesbos,Λήμνου,Μύρινα Λήμνου,15,0,0,0,0,0.0,39.875265,25.063448
EL231,24/12/20,Π.Ε. Αιτωλοακαρνανίας,Π.Ε. Αιτωλοακαρνανίας,Aetolia-Acarnania,Αντίρριο,Αντίρριο,9,0,0,0,0,0.0,38.3303237,21.7642046
EL213,24/12/20,Π.Ε. Ιωαννίνων,Π.Ε. Ιωαννίνων,Ioannina,Ιωάννινα,Ιωάννινα,44,0,0,0,0,0.0,39.6650288,20.8537466
EL222,24/12/20,Π.Ε. Κέρκυρας,Π.Ε. Κέρκυρας,Corfu (Kerkyra),Μωραΐτικα,"Μωραΐτικα, Κέρκυρα",48,0,0,0,0,0.0,39.4868566,19.9243249
EL125,24/12/20,Π.Ε. Πιερίας,Π.Ε. Πιερίας,Pieria,Κατερίνη,"Λαγοράχη Κατερίνης, Πιερία",61,0,0,0,0,0.0,40.294949,22.3512233
EL125,24/12/20,Π.Ε. Πιερίας,Π.Ε. Πιερίας,Pieria,Κατερίνη,"Ανδρομάχη Κατερίνης, Πιερία",108,1,1,0,64,0.9,40.272567,22.4801249
EL131,24/12/20,Π.Ε. Γρεβενών,Π.Ε. Γρεβενών,Grevena,Γρεβενών,Εσωτερικός Κόμβος Γρεβενών,235,0,0,0,0,0.0,40.0837626,21.4273299
EL244,24/12/20,Π.Ε. Φθιώτιδας,Π.Ε. Φθιώτιδας,Phthiotis,Λαμία,Λαμία,395,0,0,0,0,0.0,38.8997323,22.4336668
EL112,24/12/20,Π.Ε. Ξάνθης,Π.Ε. Ξάνθης,Xanthi,Ξάνθης,Ξάνθη,86,1,0,0,37,1.2,41.1362513,24.8877024
EL254,24/12/20,Π.Ε. Λακωνίας,Π.Ε. Λακωνίας,Laconia,Σπάρτη,Αμυκλές Σπάρτης,55,2,1,1,36,3.6,37.026852,22.4376992
EL300,28/12/20,Π.Ε. Κεντρικού Τομέα Αθηνών,Περιφέρεια Αττικής,Attica,Κεντρικού Τομέα,Σταθμός Μετρό «Σύνταγμα»,392,2,1,1,72,0.5,37.9745068,23.7352651
EL300,28/12/20,Π.Ε. Δυτικού Τομέα Αθηνών,Περιφέρεια Αττικής,Attica,Δυτικού Τομέα Αθηνών,Δήμος Αγίων Αναργύρων,281,0,0,0,0,0.0,38.0551278,23.697829
EL300,28/12/20,Π.Ε. Ανατολικής Αττικής,Περιφέρεια Αττικής,Attica,Ανατολικής Αττικής,Δήμος Διονύσου,449,12,7,5,38,2.7,38.1279332,23.8941657
EL300,28/12/20,Π.Ε. Δυτικής Αττικής,Περιφέρεια Αττικής,Attica,Δυτικής Αττικής,"Δήμος Ασπροπύργου, Ψάρι",75,6,5,1,60,8.0,38.0854584,23.5652184
EL300,28/12/20,Π.Ε. Δυτικής Αττικής,Περιφέρεια Αττικής,Attica,Δυτικής Αττικής,"Δήμος Ασπροπύργου, Κάτω Φούσα",138,4,3,1,52,2.9,38.0890826,23.5854107
EL122,28/12/20,Π.Ε. Θεσσαλονίκης,Π.Ε. Θεσσαλονίκης,Thessaloniki,Θεσσαλονίκης,Θέρμη,181,0,0,0,0,0.0,40.5485201,23.019646
EL122,28/12/20,Π.Ε. Θεσσαλονίκης,Π.Ε. Θεσσαλονίκης,Thessaloniki,Θεσσαλονίκης,Ποσειδώνιο,71,0,0,0,0,0.0,41.1013202,25.3201332
EL122,28/12/20,Π.Ε. Θεσσαλονίκης,Π.Ε. Θεσσαλονίκης,Thessaloniki,Θεσσαλονίκης,Αμπελόκηποι,81,3,1,2,34,3.7,37.9886745,23.7637517
EL122,28/12/20,Π.Ε. Θεσσαλονίκης,Π.Ε. Θεσσαλονίκης,Thessaloniki,Θεσσαλονίκης,Καυτατζόγλειο,80,1,0,0,48,1.3,40.6255005,22.9669699
EL233,28/12/20,Π.Ε. Ηλείας,Π.Ε. Ηλείας,Elis,Ηλείας,Πύργος,110,0,0,0,0,0.0,37.6718487,21.4432257
EL233,28/12/20,Π.Ε. Ηλείας,Π.Ε. Ηλείας,Elis,Ηλείας,Αμαλιάδα,100,0,0,0,0,0.0,37.7967917,21.3507581
EL421,28/12/20,Π.Ε. Ρόδου,Ν. Δωδεκανήσου,Dodecanese,Ρόδου,Λεωφόρος Κρεμαστής,61,0,0,0,0,0.0,36.4107238,28.1182124
EL422,28/12/20,Π.Ε. Πάρου,Ν. Κυκλάδων,Cyclades,Πάρου,Μαρπήσσα,26,0,0,0,0,0.0,37.0438752,25.248477
EL141,28/12/20,Π.Ε. Καρδίτσας,Π.Ε. Καρδίτσας,Karditsa,Καρδίτσας,Σοφάδες,75,2,2,0,40,2.7,39.3359337,22.0916414
EL244,28/12/20,Π.Ε. Φθιώτιδας,Π.Ε. Φθιώτιδας,Phthiotis,Φθιώτιδας,Λαμία,202,0,0,0,0,0.0,38.8997323,22.4336668
EL142,28/12/20,Π.Ε. Λάρισας,Π.Ε. Λαρίσης,Larissa,Λάρισας,Σκεπαστή Αγορά Νεάπολης,164,1,0,0,50,0.6,39.6189242,22.4028242
EL142,28/12/20,Π.Ε. Λάρισας,Π.Ε. Λαρίσης,Larissa,Λάρισας,Μάνδρα,69,0,0,0,0,0.0,38.0750425,23.5008508
EL112,28/12/20,Π.Ε. Ξάνθης,Π.Ε. Ξάνθης,Xanthi,Ξάνθης,Ξάνθη,123,5,2,3,53,4.1,41.1362513,24.8877024
EL134,28/12/20,Π.Ε. Φλώρινας,Π.Ε. Φλώρινας,Florina,Φλώρινας,Αμύνταιο,181,4,1,3,51,2.2,40.6905178,21.6797432
EL253,28/12/20,Π.Ε. Κορίνθου,Π.Ε. Κορινθίας,Corinthia,Κορίνθου,Δήμος Λουτρακίου,186,0,0,0,0,0.0,37.9759033,22.9774589
EL125,28/12/20,Π.Ε. Πιερίας,Π.Ε. Πιερίας,Pieria,Πιερίας,Κατερίνη,56,1,0,0,45,1.8,40.2702495,22.5121487
EL124,28/12/20,Π.Ε. Πέλλας,Π.Ε. Πέλλας,Pella,Πέλλας,Γιαννιτσά,182,1,0,1,61,0.5,40.7943587,22.4144481
EL241,28/12/20,Π.Ε. Βοιωτίας,Π.Ε. Βοιωτίας,Boeotia,Βοιωτίας,Βαιών,68,0,0,0,0,0.0,,
EL252,28/12/20,Π.Ε. Αρκαδίας,Π.Ε. Αρκαδίας,Arcadia,Αρκαδίας,Τρίπολη,151,0,0,0,0,0.0,37.5101357,22.372644
EL413,28/12/20,Π.Ε. Χίου,Ν. Δωδεκανήσου,Dodecanese,Χίου,Καρδάμυλα,183,0,0,0,0,0.0,38.5288989,26.0921367
EL300,29/12/20,Π.Ε. Κεντρικού Τομέα Αθηνών,Περιφέρεια Αττικής,Attica,Κεντρικού Τομέα,Σταθμός Μετρό «Σύνταγμα»,392,2,1,1,72,0.5,37.9745068,23.7352651
EL300,29/12/20,Π.Ε. Δυτικού Τομέα Αθηνών,Περιφέρεια Αττικής,Attica,Δυτικού Τομέα Αθηνών,Δήμος Αγίων Αναργύρων,281,0,0,0,0,0.0,38.0551278,23.697829
EL300,29/12/20,Π.Ε. Ανατολικής Αττικής,Περιφέρεια Αττικής,Attica,Ανατολικής Αττικής,Δήμος Διονύσου,449,12,7,5,38,2.7,38.1279332,23.8941657
EL300,29/12/20,Π.Ε. Δυτικής Αττικής,Περιφέρεια Αττικής,Attica,Δυτικής Αττικής,"Δήμος Ασπροπύργου, Ψάρι",75,6,5,1,60,8.0,38.0854584,23.5652184
EL300,29/12/20,Π.Ε. Δυτικής Αττικής,Περιφέρεια Αττικής,Attica,Δυτικής Αττικής,"Δήμος Ασπροπύργου, Κάτω Φούσα",138,4,3,1,52,2.9,38.0890826,23.5854107
EL122,29/12/20,Π.Ε. Θεσσαλονίκης,Π.Ε. Θεσσαλονίκης,Thessaloniki,Θεσσαλονίκης,Θέρμη,181,0,0,0,0,0.0,40.5485201,23.019646
EL122,29/12/20,Π.Ε. Θεσσαλονίκης,Π.Ε. Θεσσαλονίκης,Thessaloniki,Θεσσαλονίκης,Ποσειδώνιο,71,0,0,0,0,0.0,41.1013202,25.3201332
EL122,29/12/20,Π.Ε. Θεσσαλονίκης,Π.Ε. Θεσσαλονίκης,Thessaloniki,Θεσσαλονίκης,Αμπελόκηποι,81,3,1,2,34,3.7,37.9886745,23.7637517
EL122,29/12/20,Π.Ε. Θεσσαλονίκης,Π.Ε. Θεσσαλονίκης,Thessaloniki,Θεσσαλονίκης,Καυτατζόγλειο,80,1,0,0,48,1.3,40.6255005,22.9669699
EL233,29/12/20,Π.Ε. Ηλείας,Π.Ε. Ηλείας,Elis,Ηλείας,Πύργος,110,0,0,0,0,0.0,37.6718487,21.4432257
EL233,29/12/20,Π.Ε. Ηλείας,Π.Ε. Ηλείας,Elis,Ηλείας,Αμαλιάδα,100,0,0,0,0,0.0,37.7967917,21.3507581
EL421,29/12/20,Π.Ε. Ρόδου,Ν. Δωδεκανήσου,Dodecanese,Ρόδου,Λεωφόρος Κρεμαστής,61,0,0,0,0,0.0,36.4107238,28.1182124
EL422,29/12/20,Π.Ε. Πάρου,Ν. Κυκλάδων,Cyclades,Πάρου,Μαρπήσσα,26,0,0,0,0,0.0,37.0438752,25.248477
EL141,29/12/20,Π.Ε. Καρδίτσας,Π.Ε. Καρδίτσας,Karditsa,Καρδίτσας,Σοφάδες,75,2,2,0,40,2.7,39.3359337,22.0916414
EL244,29/12/20,Π.Ε. Φθιώτιδας,Π.Ε. Φθιώτιδας,Phthiotis,Φθιώτιδας,Λαμία,202,0,0,0,0,0.0,38.8997323,22.4336668
EL142,29/12/20,Π.Ε. Λάρισας,Π.Ε. Λαρίσης,Larissa,Λάρισας,Σκεπαστή Αγορά Νεάπολης,164,1,0,0,50,0.6,39.6189242,22.4028242
EL142,29/12/20,Π.Ε. Λάρισας,Π.Ε. Λαρίσης,Larissa,Λάρισας,Μάνδρα,69,0,0,0,0,0.0,38.0750425,23.5008508
EL112,29/12/20,Π.Ε. Ξάνθης,Π.Ε. Ξάνθης,Xanthi,Ξάνθης,Ξάνθη,123,5,2,3,53,4.1,41.1362513,24.8877024
EL134,29/12/20,Π.Ε. Φλώρινας,Π.Ε. Φλώρινας,Florina,Φλώρινας,Αμύνταιο,181,4,1,3,51,2.2,40.6905178,21.6797432
EL253,29/12/20,Π.Ε. Κορίνθου,Π.Ε. Κορινθίας,Corinthia,Κορίνθου,Δήμος Λουτρακίου,186,0,0,0,0,0.0,37.9759033,22.9774589
EL125,29/12/20,Π.Ε. Πιερίας,Π.Ε. Πιερίας,Pieria,Πιερίας,Κατερίνη,56,1,0,0,45,1.8,40.2702495,22.5121487
EL124,29/12/20,Π.Ε. Πέλλας,Π.Ε. Πέλλας,Pella,Πέλλας,Γιαννιτσά,182,1,0,1,61,0.5,40.7943587,22.4144481
EL241,29/12/20,Π.Ε. Βοιωτίας,Π.Ε. Βοιωτίας,Boeotia,Βοιωτίας,Βαιών,68,0,0,0,0,0.0,,
EL252,29/12/20,Π.Ε. Αρκαδίας,Π.Ε. Αρκαδίας,Arcadia,Αρκαδίας,Τρίπολη,151,0,0,0,0,0.0,37.5101357,22.372644
EL413,29/12/20,Π.Ε. Χίου,Ν. Δωδεκανήσου,Dodecanese,Χίου,Καρδάμυλα,183,0,0,0,0,0.0,38.5288989,26.0921367
EL300,30/12/20,Π.Ε. Κεντρικού Τομέα Αθηνών,Περιφέρεια Αττικής,Attica,Κεντρικού Τομέα,Σταθμός Μετρό «Σύνταγμα»,433,4,3,1,42,0.9,37.9745068,23.7352651
EL300,30/12/20,Π.Ε. Βόρειου Τομέα Αθηνών,Περιφέρεια Αττικής,Attica,Βόρειου Τομέα Αθηνών,Δήμος Φιλοθέης-Ψυχικού,921,4,2,2,44,0.4,38.0154908,23.7781575
EL300,30/12/20,Π.Ε. Δυτικής Αττικής,Περιφέρεια Αττικής,Attica,Δυτικής Αττικής,Δήμος Ασπροπύργου,380,14,7,7,46,3.7,38.081631,23.5966577
EL122,30/12/20,Π.Ε. Θεσσαλονίκης,Π.Ε. Θεσσαλονίκης,Thessaloniki,Θεσσαλονίκης,Θέρμη,245,3,1,2,48,1.2,40.5485201,23.019646
EL122,30/12/20,Π.Ε. Θεσσαλονίκης,Π.Ε. Θεσσαλονίκης,Thessaloniki,Θεσσαλονίκης,Ποσειδώνιο,132,0,0,0,0,0.0,41.1013202,25.3201332
EL122,30/12/20,Π.Ε. Θεσσαλονίκης,Π.Ε. Θεσσαλονίκης,Thessaloniki,Θεσσαλονίκης,Αμπελόκηποι,167,5,3,2,59,3.0,37.9886745,23.7637517
EL122,30/12/20,Π.Ε. Θεσσαλονίκης,Π.Ε. Θεσσαλονίκης,Thessaloniki,Θεσσαλονίκης,Καυτατζόγλειο,111,1,0,1,58,0.9,40.6255005,22.9669699
EL434,30/12/20,Π.Ε. Χανίων,Π.Ε. Χανίων,Chania,Χανίων,Δήμος Πλατανιά,194,0,0,0,0,0.0,35.5167019,23.9089195
EL421,30/12/20,Π.Ε. Ρόδου,Ν. Δωδεκανήσου,Dodecanese,Ρόδου,Λ. Ρόδου-Λίνδου,32,0,0,0,0,0.0,36.2957367,28.1626071
EL431,30/12/20,Π.Ε. Ηρακλείου,Π.Ε. Ηρακλείου,Herakleion,Ηρακλείου,Ηράκλεια,986,1,0,0,52,0.1,35.3387352,25.1442126
EL213,30/12/20,Π.Ε. Ιωαννίνων,Π.Ε. Ιωαννίνων,Ioannina,Ιωαννίνων,"Πλατεία Πύρρου, Ιωάννινα",184,0,0,0,0,0.0,39.663971,20.8525021
EL411,30/12/20,Π.Ε. Λήμνου,Ν. Λέσβου,Lesbos,Λήμνου,Μύρινα,13,0,0,0,0,0.0,39.875265,25.063448
EL141,30/12/20,Π.Ε. Καρδίτσας,Π.Ε. Καρδίτσας,Karditsa,Καρδίτσας,Περιφερειακός Καρδιτσομαγούλας,304,4,4,0,20,1.3,39.3915625,21.9245288
EL143,30/12/20,Π.Ε. Μαγνησίας,Ν. Μαγνησίας,Magnesia,Μαγνησίας,Πανθεσσαλικό Στάδιο Βόλου,209,1,0,0,44,0.5,39.3874845,22.930828
EL143,30/12/20,Π.Ε. Μαγνησίας,Ν. Μαγνησίας,Magnesia,Μαγνησίας,Μούρεσι Πηλίου,78,0,0,0,0,0.0,39.4009978,23.1645514
EL143,30/12/20,Π.Ε. Μαγνησίας,Ν. Μαγνησίας,Magnesia,Μαγνησίας,Ζαγορά Πηλίου,59,0,0,0,0,0.0,39.4416384,23.1028193
EL142,30/12/20,Π.Ε. Λάρισας,Π.Ε. Λαρίσης,Larissa,Λάρισας,Κοιλάδα,88,0,0,0,0,0.0,,
EL231,30/12/20,Π.Ε. Αιτωλοακαρνανίας,Π.Ε. Αιτωλοακαρνανίας,Aetolia-Acarnania,Αιτωλοακαρνανίας,Γέφυρα Ρίο-Αντίρριο,6,0,0,0,0,0.0,38.3205907,21.7737109
EL132,30/12/20,Π.Ε. Καστοριάς,Π.Ε. Καστοριάς,Kastoria,Καστοριάς,Λ. Κύκνων,94,0,0,0,0,0.0,40.5150661,21.2544766
EL112,30/12/20,Π.Ε. Ξάνθης,Π.Ε. Ξάνθης,Xanthi,Ξάνθης,Ξάνθη,120,1,0,0,44,0.8,41.1362513,24.8877024
EL114,30/12/20,Π.Ε. Δράμας,Π.Ε. Δράμας,Drama,Δράμας,Δράμα,152,2,0,0,18,1.3,41.1502273,24.1469489
EL127,30/12/20,Π.Ε. Χαλκιδικής,Π.Ε. Χαλκιδικής,Chalkidiki,Χαλκιδικής,Χαλκιδική,74,0,0,0,0,0.0,40.3694997,23.287085
EL113,30/12/20,Π.Ε. Ροδόπης,Π.Ε. Ροδόπης,Rhodope,Ροδόπης,Λαϊκή Αγορά Κομοτηνής,167,2,1,1,39,1.2,41.1216495,25.4167524
EL253,30/12/20,Π.Ε. Κορινθίας,Π.Ε. Κορινθίας,Corinthia,Κόρινθος,Δερβένι,99,0,0,0,0,0.0,38.1308863,22.4122809
EL253,30/12/20,Π.Ε. Κορινθίας,Π.Ε. Κορινθίας,Corinthia,Κόρινθος,Κιάτο,174,1,0,1,29,0.6,38.0126545,22.750171
EL252,30/12/20,Π.Ε. Αρκαδίας,Π.Ε. Αρκαδίας,Arcadia,Αρκαδίας,Εθν. Οδός Τρίπολης-Πύργου,127,2,1,1,42,1.6,37.5149821,22.3749201
EL131,30/12/20,Π.Ε. Γρεβενών,Π.Ε. Γρεβενών,Grevena,Γρεβενών,Γρεβενά,43,0,0,0,0,0.0,40.0837626,21.4273299
EL125,30/12/20,Π.Ε. Πιερίας,Π.Ε. Πιερίας,Pieria,Πιερίας,Αιγίνιο,99,7,2,5,57,7.1,40.4989376,22.5415237
EL125,30/12/20,Π.Ε. Πιερίας,Π.Ε. Πιερίας,Pieria,Πιερίας,Ανδρομάχη,68,0,0,0,0,0.0,40.272567,22.4801249
EL124,30/12/20,Π.Ε. Πέλλας,Π.Ε. Πέλλας,Pella,Πέλλας,Σκύδρα,116,0,0,0,0,0.0,40.7673908,22.1539417
EL413,30/12/20,Π.Ε. Χίου,Ν. Δωδεκανήσου,Dodecanese,Χίου,"Ιωνικό Κολυμβητήριο, Χίος",18,0,0,0,0,0.0,38.3308941,26.1438283
EL245,30/12/20,Π.Ε. Φωκίδας,Π.Ε. Φωκίδας,Phocis,Φωκίδας,Άμφισσα,35,0,0,0,0,0.0,38.5276679,22.3781527
EL300,31/12/20,Π.Ε. Κεντρικού Τομέα Αθηνών,Περιφέρεια Αττικής,Attica,Κεντρικού Τομέα,Σταθμός Μετρό «Σύνταγμα»,484,2,2,0,26,0.4,37.9745068,23.7352651
EL300,31/12/20,Π.Ε. Δυτικού Τομέα Αθηνών,Περιφέρεια Αττικής,Attica,Δυτικού Τομέα Αθηνών,Δήμος Αιγάλεω,383,4,3,1,37,1.0,37.9924361,23.6781246
EL300,31/12/20,Π.Ε. Ανατολικής Αττικής,Περιφέρεια Αττικής,Attica,Ανατολικής Αττικής,Δήμος Κορωπίου,283,0,0,0,0,0.0,37.9011442,23.8726503
EL122,31/12/20,Π.Ε. Θεσσαλονίκης,Π.Ε. Θεσσαλονίκης,Thessaloniki,Θεσσαλονίκης,Θέρμη,260,2,2,0,45,0.8,40.5485201,23.019646
EL122,31/12/20,Π.Ε. Θεσσαλονίκης,Π.Ε. Θεσσαλονίκης,Thessaloniki,Θεσσαλονίκης,Ποσειδώνιο,154,0,0,0,0,0.0,41.1013202,25.3201332
EL122,31/12/20,Π.Ε. Θεσσαλονίκης,Π.Ε. Θεσσαλονίκης,Thessaloniki,Θεσσαλονίκης,Αμπελόκηποι,165,1,0,1,32,0.6,37.9886745,23.7637517
EL122,31/12/20,Π.Ε. Θεσσαλονίκης,Π.Ε. Θεσσαλονίκης,Thessaloniki,Θεσσαλονίκης,Καυτατζόγλειο,114,0,0,0,0,0.0,40.6255005,22.9669699
EL122,31/12/20,Π.Ε. Θεσσαλονίκης,Π.Ε. Θεσσαλονίκης,Thessaloniki,Θεσσαλονίκης,Καλαμαριά,268,3,2,1,37,1.1,40.5785429,22.9594983
EL421,31/12/20,Π.Ε. Ρόδου,Ν. Δωδεκανήσου,Dodecanese,Ρόδου,Αθλητικό Κέντρο Καλλιπάτειρα,49,0,0,0,0,0.0,36.4253299,28.23074
EL233,31/12/20,Π.Ε. Ηλείας,Π.Ε. Ηλείας,Elis,Ηλείας,Αρχαία Ολυμπία,80,0,0,0,0,0.0,37.64466,21.6254797
EL224,31/12/20,Π.Ε. Λευκάδας,Π.Ε. Λευκάδας,Lefkada,Λευκάδας,Λευκάδα,22,0,0,0,0,0.0,38.7066464,20.64073
EL411,31/12/20,Π.Ε. Λήμνου,Ν. Λέσβου,Lesbos,Λήμνου,Μύρινα,14,0,0,0,0,0.0,39.875265,25.063448
EL211,31/12/20,Π.Ε. Άρτας,Π.Ε. Άρτας,Arta,Άρτας,Δημαρχείο Άρτας,78,0,0,0,0,0.0,39.1571388,20.9792332
EL421,31/12/20,Π.Ε. Καλύμνου,Ν. Δωδεκανήσου,Dodecanese,Καλύμνου,Πρόδρομος Χώρας,126,0,0,0,0,0.0,34.9483038,32.8324252
EL244,31/12/20,Π.Ε. Φθιώτιδας,Π.Ε. Φθιώτιδας,Phthiotis,Φθιώτιδας,Λαμία,412,0,0,0,0,0.0,38.8997323,22.4336668
EL111,31/12/20,Π.Ε. Έβρου,Π.Ε. Έβρου,Evros,Έβρου,Αγριανή Σουφλίου,34,0,0,0,0,0.0,41.2834234,26.2880844
EL127,31/12/20,Π.Ε. Χαλκιδικής,Π.Ε. Χαλκιδικής,Chalkidiki,Χαλκιδικής,Χαλκιδική,82,0,0,0,0,0.0,40.3694997,23.287085
EL112,31/12/20,Π.Ε. Ξάνθης,Π.Ε. Ξάνθης,Xanthi,Ξάνθης,Ξάνθη,72,0,0,0,0,0.0,41.1362513,24.8877024
EL134,31/12/20,Π.Ε. Φλώρινας,Π.Ε. Φλώρινας,Florina,Φλώρινας,Πελαργός Αμυνταίου,73,3,1,2,55,4.1,40.6141344,21.7547954
EL231,31/12/20,Π.Ε. Αιτωλοακαρνανίας,Π.Ε. Αιτωλοακαρνανίας,Aetolia-Acarnania,Αιτωλοακαρνανίας,Αγρίνιο,145,0,0,0,0,0.0,38.6244897,21.4096034
EL413,31/12/20,Π.Ε. Χίου,Ν. Δωδεκανήσου,Dodecanese,Χίου,Πυργί,40,0,0,0,0,0.0,38.2269515,25.9966559
EL125,31/12/20,Π.Ε. Πιερίας,Π.Ε. Πιερίας,Pieria,Πιερίας,Κατερίνη,66,0,0,0,0,0.0,40.2702495,22.5121487
EL126,31/12/20,Π.Ε. Σερρών,Π.Ε. Σερρών,Serres,Σερρών,Δήμος Ηράκλειας,85,0,0,0,0,0.0,41.1837502,23.2810087
EL300,05/01/21,Π.Ε. Κεντρικού Τομέα Αθηνών,Περιφέρεια Αττικής,Attica,Κεντρικού Τομέα Αθηνών,Μετρό Συντάγματος,307,2,2,0,26,0.7,37.9745068,23.7352651
EL300,05/01/21,Π.Ε. Κεντρικού Τομέα Αθηνών,Περιφέρεια Αττικής,Attica,Κεντρικού Τομέα Αθηνών,Τεχνόπολις Δήμου Αθηναίων,580,13,8,5,37,2.2,37.9777776,23.7136161
EL300,05/01/21,Π.Ε. Ανατολικής Αττικής,Περιφέρεια Αττικής,Attica,Ανατολικής Αττικής,Δήμος Διονύσου,439,20,4,16,43,4.6,38.1279332,23.8941657
EL300,09/01/21,Π.Ε. Βόρειου Τομέα Αθηνών,Περιφέρεια Αττικής,Attica,Βόρειου Τομέα Αθηνών,Δήμος Παπάγου-Χολαργού,873,2,0,0,0,0.2,37.9922656,23.804931
EL300,09/01/21,Π.Ε. Δυτικής Αττικής,Περιφέρεια Αττικής,Attica,Δυτικής Αττικής,Ασπρόπυργος,165,4,0,0,0,2.4,38.0609063,23.5910603
EL122,09/01/21,Π.Ε. Θεσσαλονίκης,Π.Ε. Θεσσαλονίκης,Thessaloniki,Θεσσαλονίκης,Καλαμαριά,68,0,0,0,0,0.0,40.5785429,22.9594983
EL134,09/01/21,Π.Ε. Φλώρινας,Π.Ε. Φλώρινας,Florina,Φλώρινας,Αμύνταιο,62,0,0,0,0,0.0,40.6905178,21.6797432
EL254,09/01/21,Π.Ε. Λακωνίας,Π.Ε. Λακωνίας,Laconia,Λακωνίας,Αμυκλές,71,3,0,0,0,4.2,37.026852,22.4376992
EL133,09/01/21,Π.Ε. Κοζάνης,Π.Ε. Κοζάνης,Kozani,Κοζάνης,Σέρβια,37,0,0,0,0,0.0,44.016521,21.005859
EL133,09/01/21,Π.Ε. Κοζάνης,Π.Ε. Κοζάνης,Kozani,Κοζάνης,Βελβεντό,94,0,0,0,0,0.0,40.2545476,22.0742782
EL133,09/01/21,Π.Ε. Κοζάνης,Π.Ε. Κοζάνης,Kozani,Κοζάνης,Κοζάνη,108,3,0,0,0,2.8,40.3005586,21.7887737
EL244,09/01/21,Π.Ε. Φθιώτιδας,Π.Ε. Φθιώτιδας,Phthiotis,Φθιώτιδας,Ανθήλη,158,0,0,0,0,0.0,38.8500883,22.4782525
EL421,09/01/21,Π.Ε. Καλύμνου,Ν. Δωδεκανήσου,Dodecanese,Καλύμνου,Κεντρικός Λιμένας,68,1,0,0,0,1.5,39.4892668,20.2583502
EL141,09/01/21,Π.Ε. Καρδίτσας,Π.Ε. Καρδίτσας,Karditsa,Καρδίτσας,Καρδίτσα,228,0,0,0,0,0.0,39.3640258,21.9214049
EL144,09/01/21,Π.Ε. Τρικάλων,Π.Ε. Τρικάλων,Trikala,Τρικάλων,Τρίκαλα,234,0,0,0,0,0.0,39.5557317,21.7678951
EL422,09/01/21,Π.Ε. Πάρου,Ν. Κυκλάδων,Cyclades,Πάρου,Παροικιά,96,0,0,0,0,0.0,37.0856432,25.1488318
EL233,09/01/21,Π.Ε. Ηλείας,Π.Ε. Ηλείας,Elis,Ηλείας,Ζαχάρω,55,0,0,0,0,0.0,37.4835293,21.6479439
EL233,09/01/21,Π.Ε. Ηλείας,Π.Ε. Ηλείας,Elis,Ηλείας,Λάμπεια,54,0,0,0,0,0.0,37.8583554,21.806953
EL421,09/01/21,Π.Ε. Ρόδου,Ν. Δωδεκανήσου,Dodecanese,Ρόδου,Ρόδος,29,0,0,0,0,0.0,36.4340533,28.2176379
EL252,09/01/21,Π.Ε. Αρκαδίας,Π.Ε. Αρκαδίας,Arcadia,Αρκαδίας,Τρίπολη,290,0,0,0,0,0.0,37.5101357,22.372644
EL300,10/01/21,Π.Ε. Δυτικής Αττικής,Περιφέρεια Αττικής,Attica,Δυτικής Αττικής,Ελευσίνα,541,5,0,0,0,0.9,38.0412749,23.5418125
EL300,10/01/21,Π.Ε. Δυτικής Αττικής,Περιφέρεια Αττικής,Attica,Δυτικής Αττικής,Μαγούλα,200,2,0,0,0,1.0,38.0790354,23.5215964
EL122,10/01/21,Π.Ε. Θεσσαλονίκης,Π.Ε. Θεσσαλονίκης,Thessaloniki,Θεσσαλονίκης,Θέρμη,266,4,0,0,0,1.5,40.5485201,23.019646
EL412,10/01/21,Π.Ε. Ικαρίας,Ν. Σάμου,Samos,Ικαρίας,Ράχες,51,0,0,0,0,0.0,38.8906036,22.7810269
EL133,10/01/21,Π.Ε. Κοζάνης,Π.Ε. Κοζάνης,Kozani,Κοζάνης,Κοζάνη,422,0,0,0,0,0.0,40.3005586,21.7887737
EL244,10/01/21,Π.Ε. Φθιώτιδας,Π.Ε. Φθιώτιδας,Phthiotis,Φθιώτιδας,Γραμμένη,91,0,0,0,0,0.0,41.2053977,23.891477
EL244,10/01/21,Π.Ε. Φθιώτιδας,Π.Ε. Φθιώτιδας,Phthiotis,Φθιώτιδας,Λαμία,514,4,0,0,0,0.8,38.8997323,22.4336668
EL144,10/01/21,Π.Ε. Τρικάλων,Π.Ε. Τρικάλων,Trikala,Τρικάλων,Τρίκαλα,245,0,0,0,0,0.0,39.5557317,21.7678951
EL421,10/01/21,Π.Ε. Ρόδου,Ν. Δωδεκανήσου,Dodecanese,Ρόδου,Μανδράκι,111,0,0,0,0,0.0,37.3525794,23.4829979
EL232,10/01/21,Π.Ε. Αχαΐας,Π.Ε. Αχαΐας,Achaea,Αχαΐας,Πάτρα,90,0,0,0,0,0.0,38.2466395,21.734574
EL126,10/01/21,Π.Ε. Σερρών,Π.Ε. Σερρών,Serres,Σερρών,Ψυχικό,101,1,0,0,0,1.0,38.0104471,23.773265
EL242,10/01/21,Π.Ε. Εύβοιας,Π.Ε. Ευβοίας,Euboea,Εύβοιας,Ιστιαία,41,0,0,0,0,0.0,38.9528547,23.1527142
EL421,10/01/21,Π.Ε. Κω,Ν. Δωδεκανήσου,Dodecanese,Κω,Αντιμάχεια,59,0,0,0,0,0.0,36.8092579,27.0981016
EL300,11/01/21,Π.Ε. Νότιου Τομέα Αθηνών,Περιφέρεια Αττικής,Attica,Νότιου Τομέα Αθηνών,Δήμος Νέας Σμύρνης,657,3,3,0,36,0.5,37.9442881,23.7117556
EL122,11/01/21,Π.Ε. Θεσσαλονίκης,Π.Ε. Θεσσαλονίκης,Thessaloniki,Θεσσαλονίκης,Καυτατζόγλειο,43,0,0,0,0,0.0,40.6255005,22.9669699
EL421,11/01/21,Π.Ε. Ρόδου,Ν. Δωδεκανήσου,Dodecanese,Ρόδου,Άγιος Νικόλαος,35,0,0,0,0,0.0,35.1899597,25.7164166
EL141,11/01/21,Π.Ε. Καρδίτσας,Π.Ε. Καρδίτσας,Karditsa,Καρδίτσας,Δημοτική Ενότητα Ανάβρας-Δήμος Σοφάδων,100,0,0,0,0,0.0,39.1897986,22.0941256
EL241,11/01/21,Π.Ε. Βοιωτίας,Π.Ε. Βοιωτίας,Boeotia,Βοιωτίας,Θήβα,243,3,1,2,53,1.2,38.322579,23.3204309
EL144,11/01/21,Π.Ε. Τρικάλων,Π.Ε. Τρικάλων,Trikala,Τρικάλων,Ζωαγορά Τρικάλων,176,4,1,3,56,2.3,,
EL231,11/01/21,Π.Ε. Αιτωλοακαρνανίας,Π.Ε. Αιτωλοακαρνανίας,Aetolia-Acarnania,Αιτωλοακαρνανίας,Μεσολόγγι,41,0,0,0,0,0.0,38.3686739,21.430415
EL142,11/01/21,Π.Ε. Λάρισας,Π.Ε. Λαρίσης,Larissa,Λάρισας,Δαμάσι,38,0,0,0,0,0.0,39.7124334,22.1879108
EL232,11/01/21,Π.Ε. Αχαΐας,Π.Ε. Αχαΐας,Achaea,Αχαΐας,Καλάβρυτα,30,0,0,0,0,0.0,38.033281,22.1103462
EL132,11/01/21,Π.Ε. Καστοριάς,Π.Ε. Καστοριάς,Kastoria,Καστοριάς,Καστοριά,54,0,0,0,0,0.0,40.5192691,21.2687171
EL134,11/01/21,Π.Ε. Φλώρινας,Π.Ε. Φλώρινας,Florina,Φλώρινας,Λιμνοχώρι,41,1,0,1,20,2.4,40.6232358,21.5577866
EL115,11/01/21,Π.Ε. Θάσου,Ν. Καβάλας,Kavala,Θάσου,Λιμένας Θάσου,30,0,0,0,0,0.0,40.7766956,24.7090705
EL115,11/01/21,Π.Ε. Θάσου,Ν. Καβάλας,Kavala,Θάσου,Θεολόγος Θάσου,22,0,0,0,0,0.0,40.658895,24.6927757
EL125,11/01/21,Π.Ε. Πιερίας,Π.Ε. Πιερίας,Pieria,Πιερίας,Ανδρομάχη,45,2,1,1,61,4.4,40.272567,22.4801249
EL412,11/01/21,Π.Ε. Ικαρίας,Ν. Σάμου,Samos,Ικαρίας,Άγιος Κήρυκος,31,0,0,0,0,0.0,37.6162112,26.2954532
EL245,11/01/21,Π.Ε. Φωκίδας,Π.Ε. Φωκίδας,Phocis,Φωκίδας,Ιτέα,47,0,0,0,0,0.0,38.4324927,22.4259628
EL300,26/01/21,Π.Ε. Κεντρικού Τομέα Αθηνών,Περιφέρεια Αττικής,Attica,Κεντρικού Τομέα Αθηνών,Σύνταγμα,386,4,0,0,0,1.0,37.974647,23.7356793
EL300,26/01/21,Π.Ε. Βόρειου Τομέα Αθηνών,Περιφέρεια Αττικής,Attica,Βόρειου Τομέα,Δήμος Νέας Φιλαδέλφειας,414,9,0,0,0,2.2,38.0431113,23.7424575
EL300,26/01/21,Π.Ε. Πειραιώς,Περιφέρεια Αττικής,Attica,Πειραιώς,Super Market Σκλαβενίτης Κερατσινίου,90,1,0,0,0,1.1,37.962133,23.611624
EL300,26/01/21,Π.Ε. Δυτικού Τομέα Αθηνών,Περιφέρεια Αττικής,Attica,Δυτικού Τομέα Αθηνών,Super Market Σκλαβενίτης Αγίας Βαρβάρας,59,0,0,0,0,0.0,37.9877908,23.6523487
EL124,26/01/21,Π.Ε. Πέλλας,Π.Ε. Πέλλας,Pella,Πέλλας,Αριδαία,70,0,0,0,0,0.0,40.9735305,22.0610109
EL421,26/01/21,Π.Ε. Ρόδου,Ν. Δωδεκανήσου,Dodecanese,Ρόδου,Λ. Εθνικής Αντιστάσεως,25,0,0,0,0,0.0,35.3336263,25.1409888
EL141,26/01/21,Π.Ε. Καρδίτσας,Π.Ε. Καρδίτσας,Karditsa,Καρδίτσας,Καστανιά Καρδίτσας,16,0,0,0,0,0.0,39.2377952,21.8005572
EL141,26/01/21,Π.Ε. Καρδίτσας,Π.Ε. Καρδίτσας,Karditsa,Καρδίτσας,Μούχα Καρδίτσας,16,0,0,0,0,0.0,39.2370503,21.7678335
EL242,26/01/21,Π.Ε. Εύβοιας,Π.Ε. Ευβοίας,Euboea,Εύβοιας,Κοινότητα Στενής,41,0,0,0,0,0.0,38.5764883,23.6425184
EL242,26/01/21,Π.Ε. Εύβοιας,Π.Ε. Ευβοίας,Euboea,Εύβοιας,Κοινότητα Λούτσας,59,3,0,0,0,5.1,37.960201,23.9774369
EL242,26/01/21,Π.Ε. Εύβοιας,Π.Ε. Ευβοίας,Euboea,Εύβοιας,Κοινότητα Θεολόγου,63,0,0,0,0,0.0,38.651639,23.193155
EL242,26/01/21,Π.Ε. Εύβοιας,Π.Ε. Ευβοίας,Euboea,Εύβοιας,Αμφιθέας,41,2,0,0,0,4.9,37.933192,23.7016798
EL231,26/01/21,Π.Ε. Αιτωλοακαρνανίας,Π.Ε. Αιτωλοακαρνανίας,Aetolia-Acarnania,Αιτωλοακαρνανίας,Μεσολόγγι,4,0,0,0,0,0.0,38.3686739,21.430415
EL134,26/01/21,Π.Ε. Φλώρινας,Π.Ε. Φλώρινας,Florina,Φλώρινας,Αμύνταιο,43,0,0,0,0,0.0,40.6905178,21.6797432
EL125,26/01/21,Π.Ε. Πιερίας,Π.Ε. Πιερίας,Pieria,Πιερίας,Κονταριώτισσα,180,2,0,0,0,1.1,40.2279791,22.4612422
EL125,26/01/21,Π.Ε. Πιερίας,Π.Ε. Πιερίας,Pieria,Πιερίας,Ανδρομάχη,20,0,0,0,0,0.0,40.272567,22.4801249
EL125,26/01/21,Π.Ε. Πιερίας,Π.Ε. Πιερίας,Pieria,Πιερίας,Λιτόχωρο,15,0,0,0,0,0.0,40.1029473,22.5026117
EL111,26/01/21,Π.Ε. Έβρου,Π.Ε. Έβρου,Evros,Έβρου,Αλεξανδρούπολη,40,0,0,0,0,0.0,40.8457193,25.873962
EL115,26/01/21,Π.Ε. Θάσου,Ν. Καβάλας,Kavala,Θάσου,Ραχώνι,9,0,0,0,0,0.0,40.756794,24.6363916
EL421,26/01/21,Π.Ε. Κω,Ν. Δωδεκανήσου,Dodecanese,Κω,Καρδάμαινα,189,0,0,0,0,0.0,36.7822585,27.1435227
EL142,26/01/21,Π.Ε. Λάρισας,Π.Ε. Λαρίσης,Larissa,Λάρισας,Σκεπαστή Αγορά Νεάπολης,203,0,0,0,0,0.0,39.6189242,22.4028242
EL142,26/01/21,Π.Ε. Λάρισας,Π.Ε. Λαρίσης,Larissa,Λάρισας,Φάρσαλα,97,3,0,0,0,3.1,39.295635,22.384495
EL142,26/01/21,Π.Ε. Λάρισας,Π.Ε. Λαρίσης,Larissa,Λάρισας,Ανωχώρι Φαρσάλων,55,0,0,0,0,0.0,39.3176468,22.3210648
EL143,26/01/21,Π.Ε. Μαγνησίας,Ν. Μαγνησίας,Magnesia,Μαγνησίας,Πανθεσσαλικό Στάδιο Βόλου,80,0,0,0,0,0.0,39.3874845,22.930828
EL112,26/01/21,Π.Ε. Ξάνθης,Π.Ε. Ξάνθης,Xanthi,Ξάνθης,Ξάνθη,43,1,0,0,0,2.3,41.1362513,24.8877024
EL412,26/01/21,Π.Ε. Ικαρίας,Ν. Σάμου,Samos,Ικαρίας,Φραντάτο,7,0,0,0,0,0.0,37.6050124,26.1384052
EL300,27/01/21,Π.Ε. Κεντρικού Τομέα Αθηνών,Περιφέρεια Αττικής,Attica,Κεντρικού Τομέα Αθηνών,Σύνταγμα,343,2,1,1,33,0.6,37.974647,23.7356793
EL300,27/01/21,Π.Ε. Βόρειου Τομέα Αθηνών,Περιφέρεια Αττικής,Attica,Βόρειου Τομέα,Δήμος Γαλατσίου,535,0,0,0,0,0.0,38.0188948,23.7560223
EL300,27/01/21,Π.Ε. Νήσων,Περιφέρεια Αττικής,Attica,Νήσων,Δημαρχείο Σαλαμίνας,139,1,1,0,25,0.7,37.9637112,23.501671
EL300,27/01/21,Π.Ε. Δυτικής Αττικής,Περιφέρεια Αττικής,Attica,Δυτικής Αττικής,Super Market Σκλαβενίτης Ελευσίνας,65,0,0,0,0,0.0,38.0466954,23.5406297
EL300,27/01/21,Π.Ε. Δυτικού Τομέα Αθηνών,Περιφέρεια Αττικής,Attica,Δυτικού Τομέα Αθηνών,Super Market Σκλαβενίτης Περιστερίου,123,0,0,0,0,0.0,38.0053079,23.7095246
EL124,27/01/21,Π.Ε. Πέλλας,Π.Ε. Πέλλας,Pella,Πέλλας,Γυψοχώρι,12,0,0,0,0,0.0,40.8079763,22.2598682
EL124,27/01/21,Π.Ε. Πέλλας,Π.Ε. Πέλλας,Pella,Πέλλας,Τριφύλλι,13,0,0,0,0,0.0,40.7912517,22.2637698
EL124,27/01/21,Π.Ε. Πέλλας,Π.Ε. Πέλλας,Pella,Πέλλας,Σταυροδρόμι,3,0,0,0,0,0.0,37.9378071,21.6774479
EL124,27/01/21,Π.Ε. Πέλλας,Π.Ε. Πέλλας,Pella,Πέλλας,Εσωβάλτα,4,0,0,0,0,0.0,40.7067559,22.2635361
EL421,27/01/21,Π.Ε. Ρόδου,Ν. Δωδεκανήσου,Dodecanese,Ρόδου,Λ. Κρεμαστής,16,0,0,0,0,0.0,36.4059743,28.1196024
EL122,27/01/21,Π.Ε. Θεσσαλονίκης,Π.Ε. Θεσσαλονίκης,Thessaloniki,Θεσσαλονίκης,Δήμος Δέλτα,85,0,0,0,0,0.0,40.6196193,22.739048
EL122,27/01/21,Π.Ε. Θεσσαλονίκης,Π.Ε. Θεσσαλονίκης,Thessaloniki,Θεσσαλονίκης,Δήμος Πυλαίας,151,0,0,0,0,0.0,40.6270642,23.0726807
EL125,27/01/21,Π.Ε. Πιερίας,Π.Ε. Πιερίας,Pieria,Πιερίας,Ανδρομάχη,20,0,0,0,0,0.0,40.272567,22.4801249
EL125,27/01/21,Π.Ε. Πιερίας,Π.Ε. Πιερίας,Pieria,Πιερίας,Αιγίνιο,58,0,0,0,0,0.0,40.4989376,22.5415237
EL252,27/01/21,Π.Ε. Αρκαδίας,Π.Ε. Αρκαδίας,Arcadia,Αρκαδίας,Πλατεία Καρτσιώτη Άστρους,201,1,1,0,46,0.5,37.405714,22.7209654
EL252,27/01/21,Π.Ε. Αρκαδίας,Π.Ε. Αρκαδίας,Arcadia,Αρκαδίας,Παράλιο Άστρος,25,0,0,0,0,0.0,37.4152314,22.7647506
EL252,27/01/21,Π.Ε. Αρκαδίας,Π.Ε. Αρκαδίας,Arcadia,Αρκαδίας,Μελίγου,145,0,0,0,0,0.0,37.3988774,22.7281534
EL241,27/01/21,Π.Ε. Βοιωτίας,Π.Ε. Βοιωτίας,Boeotia,Βοιωτίας,Θήβα,80,0,0,0,0,0.0,38.322579,23.3204309
EL141,27/01/21,Π.Ε. Καρδίτσας,Π.Ε. Καρδίτσας,Karditsa,Καρδίτσας,Καρδίτσα,157,3,1,0,41,1.9,39.3640258,21.9214049
EL132,27/01/21,Π.Ε. Καστοριάς,Π.Ε. Καστοριάς,Kastoria,Καστοριάς,Λ. Κύκνων,25,0,0,0,0,0.0,40.5150661,21.2544766
EL411,27/01/21,Π.Ε. Λήμνου,Ν. Λέσβου,Lesbos,Λήμνου,Μύρινα,9,0,0,0,0,0.0,39.875265,25.063448
EL143,27/01/21,Π.Ε. Μαγνησίας,Ν. Μαγνησίας,Magnesia,Μαγνησίας,Αγριά Βόλου,161,0,0,0,0,0.0,39.3408388,23.0126047
EL222,27/01/21,Π.Ε. Κέρκυρας,Π.Ε. Κέρκυρας,Corfu (Kerkyra),Κέρκυρας,Δημοτικό Θέατρο Κέρκυρας,43,0,0,0,0,0.0,39.6217291,19.9199433
EL142,27/01/21,Π.Ε. Λάρισας,Π.Ε. Λαρίσης,Larissa,Λάρισας,Ελασσόνα,61,1,1,0,58,1.6,39.8949802,22.1890872
EL253,27/01/21,Π.Ε. Κορινθίας,Π.Ε. Κορινθίας,Corinthia,Κορινθίας,Κοινότητα Σουληναρίου,81,2,0,0,44,2.5,36.9692368,21.8072193
EL242,27/01/21,Π.Ε. Εύβοιας,Π.Ε. Ευβοίας,Euboea,Εύβοιας,ΚΤΕΛ,87,2,0,0,30,2.3,41.0773194,23.5424593
EL231,27/01/21,Π.Ε. Αιτωλοακαρνανίας,Π.Ε. Αιτωλοακαρνανίας,Aetolia-Acarnania,Αιτωλοακαρνανίας,Ναύπακτος,6,0,0,0,0,0.0,38.3929775,21.8348729
EL421,27/01/21,Π.Ε. Κω,Ν. Δωδεκανήσου,Dodecanese,Κω,Επαρχείο,32,0,0,0,0,0.0,36.8950087,27.2914734
EL251,27/01/21,Π.Ε. Αργολίδας,Π.Ε. Αργολίδας,Argolis,Αργολίδας,Χωριό Λαλούκας,108,0,0,0,0,0.0,37.6277616,22.7844734
EL254,27/01/21,Π.Ε. Λακωνίας,Π.Ε. Λακωνίας,Laconia,Λακωνίας,Διοικητήριο Σπάρτης,133,2,1,1,43,1.5,37.0427531,22.4327063
EL412,27/01/21,Π.Ε. Ικαρίας,Ν. Σάμου,Samos,Ικαρίας,Γιαλισκάρι,21,0,0,0,0,0.0,37.6624736,24.3214523
EL300,28/01/21,Π.Ε. Κεντρικού Τομέα Αθηνών,Περιφέρεια Αττικής,Attica,Κεντρικού Τομέα Αθηνών,Σύνταγμα,445,4,0,4,34,0.9,37.974647,23.7356793
EL300,28/01/21,Π.Ε. Δυτικής Αττικής,Περιφέρεια Αττικής,Attica,Δυτικής Αττικής,Super Market ΑΒ Βασιλόπουλος Ασπροπύργου,33,0,0,0,0,0.0,38.0659525,23.5973479
EL300,28/01/21,Π.Ε. Βόρειου Τομέα Αθηνών,Περιφέρεια Αττικής,Attica,Βόρειου Τομέα Αθηνών,Super Market Σκλαβενίτης Νέας Χαλκηδόνας,238,0,0,0,0,0.0,38.0275764,23.7297449
EL300,28/01/21,Π.Ε. Πειραιώς,Περιφέρεια Αττικής,Attica,Πειραιώς,Super Market ΑΒ Βασιλόπουλος Ρέντη,77,1,0,1,31,1.3,37.9669382,23.6651454
EL300,28/01/21,Π.Ε. Δυτικού Τομέα Αθηνών,Περιφέρεια Αττικής,Attica,Δυτικού Τομέα Αθηνών,Super Market Σκλαβενίτης Καματερό,56,1,1,0,40,1.8,38.0631066,23.7135832
EL422,28/01/21,Π.Ε. Θήρας,Ν. Κυκλάδων,Cyclades,Θήρας,Σαντορίνη,238,1,1,0,31,0.4,36.3931562,25.4615092
EL232,28/01/21,Π.Ε. Αχαΐας,Π.Ε. Αχαΐας,Achaea,Αχαΐας,Πλατεία Αγ. Γεωργίου Πάτρας,220,1,1,0,41,0.5,38.2434304,21.7374315
EL232,28/01/21,Π.Ε. Αχαΐας,Π.Ε. Αχαΐας,Achaea,Αχαΐας,Πλατεία Ελευθερίας Πάτρας,87,0,0,0,0,0.0,38.2358026,21.7419403
EL122,28/01/21,Π.Ε. Θεσσαλονίκης,Π.Ε. Θεσσαλονίκης,Thessaloniki,Θεσσαλονίκης,Δήμος Δέλτα,79,0,0,0,0,0.0,40.6196193,22.739048
EL122,28/01/21,Π.Ε. Θεσσαλονίκης,Π.Ε. Θεσσαλονίκης,Thessaloniki,Θεσσαλονίκης,Δήμος Πυλαίας,167,0,0,0,0,0.0,40.6270642,23.0726807
EL122,28/01/21,Π.Ε. Θεσσαλονίκης,Π.Ε. Θεσσαλονίκης,Thessaloniki,Θεσσαλονίκης,Δήμος Ωραιοκάστρου,68,0,0,0,0,0.0,40.7725324,22.9297109
EL433,28/01/21,Π.Ε. Ρεθύμνου,Π.Ε. Ρεθύμνης,Rethymno,Ρεθύμνου,Κοινότητα Φραντζεσκιανών Μετοχίων,75,1,1,0,48,1.3,35.328136,24.4085715
EL252,28/01/21,Π.Ε. Αρκαδίας,Π.Ε. Αρκαδίας,Arcadia,Αρκαδίας,Κοινότητα Νεστάνης,158,3,3,0,37,1.9,37.6139627,22.4658672
EL252,28/01/21,Π.Ε. Αρκαδίας,Π.Ε. Αρκαδίας,Arcadia,Αρκαδίας,Super Market Σκλαβενίτης,173,0,0,0,0,0.0,37.9633545,23.7306505
EL252,28/01/21,Π.Ε. Αρκαδίας,Π.Ε. Αρκαδίας,Arcadia,Αρκαδίας,Πλατεία Κολοκοτρώνη,160,0,0,0,0,0.0,37.9775857,23.7308686
EL222,28/01/21,Π.Ε. Κέρκυρας,Π.Ε. Κέρκυρας,Corfu (Kerkyra),Κέρκυρας,Περιφέρεια Ιονίων Νήσων,67,0,0,0,0,0.0,38.2489758,20.6247146
EL233,28/01/21,Π.Ε. Ηλείας,Π.Ε. Ηλείας,Elis,Ηλείας,Χελιδόνι Ηλείας,54,0,0,0,0,0.0,37.7139438,21.6242504
EL233,28/01/21,Π.Ε. Ηλείας,Π.Ε. Ηλείας,Elis,Ηλείας,Βάρδα,214,5,3,2,51,2.3,38.0315561,21.3650695
EL125,28/01/21,Π.Ε. Πιερίας,Π.Ε. Πιερίας,Pieria,Πιερίας,Ανδρομάχη,38,1,1,0,79,2.6,40.272567,22.4801249
EL114,28/01/21,Π.Ε. Δράμας,Π.Ε. Δράμας,Drama,Δράμας,Εθνικής Αμύνης Δράμα,71,0,0,0,0,0.0,41.1451262,24.1470016
EL141,28/01/21,Π.Ε. Καρδίτσας,Π.Ε. Καρδίτσας,Karditsa,Καρδίτσας,Δημοτική Ενότητα Μελισσοχωρίου - Δ. Σοφάδων,39,0,0,0,0,0.0,40.7701712,22.934224
EL241,28/01/21,Π.Ε. Βοιωτίας,Π.Ε. Βοιωτίας,Boeotia,Βοιωτίας,Αλίαρτος,61,0,0,0,0,0.0,38.3726,23.09915
EL242,28/01/21,Π.Ε. Εύβοιας,Π.Ε. Ευβοίας,Euboea,Εύβοιας,ΚΤΕΛ,230,2,1,1,48,0.9,41.0773194,23.5424593
EL421,28/01/21,Π.Ε. Κω,Ν. Δωδεκανήσου,Dodecanese,Κω,Επαρχείο,124,0,0,0,0,0.0,36.8950087,27.2914734
EL133,28/01/21,Π.Ε. Κοζάνης,Π.Ε. Κοζάνης,Kozani,Κοζάνης,Πλανόδιοι Πωλητές,117,0,0,0,0,0.0,,
EL142,28/01/21,Π.Ε. Λάρισας,Π.Ε. Λαρίσης,Larissa,Λάρισας,Νίκαια,113,0,0,0,0,0.0,37.9746194,23.6412944
EL142,28/01/21,Π.Ε. Λάρισας,Π.Ε. Λαρίσης,Larissa,Λάρισας,Πυργετός,95,3,3,0,75,3.2,39.9179113,22.595535
EL115,28/01/21,Π.Ε. Θάσου,Ν. Καβάλας,Kavala,Θάσου,Λιμένας Θάσου,113,0,0,0,0,0.0,40.7766956,24.7090705
EL124,28/01/21,Π.Ε. Πέλλας,Π.Ε. Πέλλας,Pella,Πέλλας,Ακρολίμνη Πέλλας,48,0,0,0,0,0.0,40.6797796,22.2635623
EL124,28/01/21,Π.Ε. Πέλλας,Π.Ε. Πέλλας,Pella,Πέλλας,Αξό Πέλλας,67,0,0,0,0,0.0,40.8020066,22.3622406
EL124,28/01/21,Π.Ε. Πέλλας,Π.Ε. Πέλλας,Pella,Πέλλας,Σεβαστιανά Σκύδρας,44,0,0,0,0,0.0,40.7681065,22.1239718
EL244,28/01/21,Π.Ε. Φθιώτιδας,Π.Ε. Φθιώτιδας,Phthiotis,Φθιώτιδας,Λαμία,185,0,0,0,0,0.0,38.8997323,22.4336668
EL253,28/01/21,Π.Ε. Κορινθίας,Π.Ε. Κορινθίας,Corinthia,Κορινθίας,Ξυλόκαστρο,168,3,2,1,60,1.8,38.0772641,22.6326975
EL254,28/01/21,Π.Ε. Λακωνίας,Π.Ε. Λακωνίας,Laconia,Λακωνίας,Πλατεία Σπάρτης,475,6,2,4,48,1.3,37.0737872,22.4294787
EL412,28/01/21,Π.Ε. Ικαρίας,Ν. Σάμου,Samos,Ικαρίας,Άγιος Κήρυκος,60,0,0,0,0,0.0,37.6162112,26.2954532
EL300,29/01/21,Π.Ε. Κεντρικού Τομέα Αθηνών,Περιφέρεια Αττικής,Attica,Κεντρικού Τομέα Αθηνών,Σύνταγμα,422,4,2,2,50,0.9,37.974647,23.7356793
EL300,29/01/21,Π.Ε. Κεντρικού Τομέα Αθηνών,Περιφέρεια Αττικής,Attica,Κεντρικού Τομέα Αθηνών,Δήμος Βύρωνα,567,1,1,0,44,0.2,37.9568018,23.7625769
EL300,29/01/21,Π.Ε. Δυτικής Αττικής,Περιφέρεια Αττικής,Attica,Δυτικής Αττικής,Δήμος Ασπροπύργου,278,0,0,0,0,0.0,38.081631,23.5966577
EL300,29/01/21,Π.Ε. Ανατολικής Αττικής,Περιφέρεια Αττικής,Attica,Ανατολικής Αττικής,Super Market Σκλαβενίτης Μενιδίου,105,1,1,0,45,1.0,38.096305,23.750285
EL300,29/01/21,Π.Ε. Νότιου Τομέα Αθηνών,Περιφέρεια Αττικής,Attica,Νότιου Τομέα Αθηνών,Super Market Σκλαβενίτης Καλλιθέας,385,3,2,1,35,0.8,37.9535135,23.7066431
EL300,30/01/21,Π.Ε. Ανατολικής Αττικής,Περιφέρεια Αττικής,Attica,Ανατολικής Αττικής,Δήμος Αρτέμιδας,333,2,1,1,30,0.6,39.483333,23.083333
EL300,30/01/21,Π.Ε. Νότιου Τομέα Αθηνών,Περιφέρεια Αττικής,Attica,Νότιου Τομέα Αθηνών,Δήμος Υμηττού,362,0,0,0,0,0.0,37.9496543,23.740971
EL122,30/01/21,Π.Ε. Θεσσαλονίκης,Π.Ε. Θεσσαλονίκης,Thessaloniki,Θεσσαλονίκης,Δήμος Καλαμαριάς,166,4,0,4,17,2.4,40.5827028,22.9530294
EL421,30/01/21,Π.Ε. Ρόδου,Ν. Δωδεκανήσου,Dodecanese,Ρόδου,Πλατεία Ελευθερίας,58,0,0,0,0,0.0,40.6337813,22.9380887
EL421,30/01/21,Π.Ε. Κω,Ν. Δωδεκανήσου,Dodecanese,Κω,Εθνικής Αντιστάσεως,89,0,0,0,0,0.0,35.3373236,25.142139
EL221,30/01/21,Π.Ε. Μυκόνου,Π.Ε. Ζακύνθου,Zakynthos,Μυκόνου,Γρυπάρειο Πολιτιστικό Κέντρο,476,10,3,7,37,2.1,37.4479917,25.3414261
EL242,30/01/21,Π.Ε. Εύβοιας,Π.Ε. Ευβοίας,Euboea,Εύβοιας,Χαλκίδα,249,2,1,1,18,0.8,38.4686919,23.6228734
EL221,30/01/21,Π.Ε. Ζακύνθου,Π.Ε. Ζακύνθου,Zakynthos,Ζακύνθου,Καλλίπαδο,60,0,0,0,0,0.0,37.8007842,20.8383693
EL221,30/01/21,Π.Ε. Ζακύνθου,Π.Ε. Ζακύνθου,Zakynthos,Ζακύνθου,Λιθάκια,42,0,0,0,0,0.0,37.7192639,20.8283941
EL300,31/01/21,Π.Ε. Κεντρικού Τομέα Αθηνών,Περιφέρεια Αττικής,Attica,Κεντρικού Τομέα Αθηνών,Δήμος Ηλιούπολης,637,2,1,1,25,0.3,37.9298588,23.7692328
EL300,31/01/21,Π.Ε. Δυτικής Αττικής,Περιφέρεια Αττικής,Attica,Δυτικής Αττικής,Δήμος Ελευσίνας,555,7,6,1,39,1.3,38.0447686,23.5404526
EL122,31/01/21,Π.Ε. Θεσσαλονίκης,Π.Ε. Θεσσαλονίκης,Thessaloniki,Θεσσαλονίκης,Δήμος Ωραιοκάστρου,193,3,2,1,54,1.6,40.7725324,22.9297109
EL252,31/01/21,Π.Ε. Αρκαδίας,Π.Ε. Αρκαδίας,Arcadia,Αρκαδίας,Τρίπολη,214,3,2,1,44,1.4,37.5101357,22.372644
EL421,31/01/21,Π.Ε. Ρόδου,Ν. Δωδεκανήσου,Dodecanese,Ρόδου,Μανδράκι,141,0,0,0,0,0.0,37.3525794,23.4829979
EL233,31/01/21,Π.Ε. Ηλείας,Π.Ε. Ηλείας,Elis,Ηλείας,Λεχαινά,204,5,3,2,40,2.5,37.9379524,21.2632559
EL242,31/01/21,Π.Ε. Εύβοιας,Π.Ε. Ευβοίας,Euboea,Εύβοιας,Χωριό Γερακίου,80,1,1,0,72,1.3,38.980237,23.2354271
EL242,31/01/21,Π.Ε. Εύβοιας,Π.Ε. Ευβοίας,Euboea,Εύβοιας,Χαλκίδα,276,12,6,6,40,4.3,38.4686919,23.6228734
EL421,31/01/21,Π.Ε. Καλύμνου,Ν. Δωδεκανήσου,Dodecanese,Καλύμνου,Κεντρικός Λιμένας Καλύμνου,116,0,0,0,0,0.0,36.9533092,26.9798133
EL232,31/01/21,Π.Ε. Αχαΐας,Π.Ε. Αχαΐας,Achaea,Αχαΐας,Αίγιο,97,0,0,0,0,0.0,38.2505451,22.0810942
EL232,31/01/21,Π.Ε. Αχαΐας,Π.Ε. Αχαΐας,Achaea,Αχαΐας,Κάτω Αχαΐα,64,0,0,0,0,0.0,38.143032,21.5520979
EL244,31/01/21,Π.Ε. Φθιώτιδας,Π.Ε. Φθιώτιδας,Phthiotis,Φθιώτιδας,Λαμία,357,3,2,1,25,0.8,38.8997323,22.4336668
EL221,31/01/21,Π.Ε. Μυκόνου,Π.Ε. Ζακύνθου,Zakynthos,Μυκόνου,Άνω Μερά,488,5,2,3,40,1.0,37.4475393,25.3912281
EL222,31/01/21,Π.Ε. Κέρκυρας,Π.Ε. Κέρκυρας,Corfu (Kerkyra),Κέρκυρας,Κέρκυρα,34,0,0,0,0,0.0,39.6242621,19.9216777
EL300,01/02/21,Π.Ε. Κεντρικού Τομέα Αθηνών,Περιφέρεια Αττικής,Attica,Κεντρικού Τομέα Αθηνών,Σταθμός Μετρό «Σύνταγμα»,401,7,5,2,55,1.7,37.9745068,23.7352651
EL300,01/02/21,Π.Ε. Κεντρικού Τομέα Αθηνών,Περιφέρεια Αττικής,Attica,Κεντρικού Τομέα Αθηνών,Δήμος Καισαριανής,503,3,0,3,23,0.6,37.9687982,23.7621703
EL300,01/02/21,Π.Ε. Δυτικής Αττικής,Περιφέρεια Αττικής,Attica,Δυτικής Αττικής,Δήμος Ελευσίνας,171,1,0,1,36,0.6,38.0447686,23.5404526
EL300,01/02/21,Π.Ε. Βόρειου Τομέα Αθηνών,Περιφέρεια Αττικής,Attica,Βόρειου Τομέα Αθηνών,Super Market Σκλαβενίτης Βριλήσσια,24,0,0,0,0,0.0,38.025861,23.833531
EL300,01/02/21,Π.Ε. Δυτικής Αττικής,Περιφέρεια Αττικής,Attica,Δυτικής Αττικής,Super Market ΑΒ Βασιλόπουλος Ασπροπύργου,30,0,0,0,0,0.0,38.0659525,23.5973479
EL122,01/02/21,Π.Ε. Θεσσαλονίκης,Π.Ε. Θεσσαλονίκης,Thessaloniki,Θεσσαλονίκης,Δήμος Αμπελοκήπων,180,2,1,1,35,1.1,40.6513195,22.8880068
EL122,01/02/21,Π.Ε. Θεσσαλονίκης,Π.Ε. Θεσσαλονίκης,Thessaloniki,Θεσσαλονίκης,Δήμος Θέρμης,180,0,0,0,0,0.0,40.4727724,23.0726807
EL144,01/02/21,Π.Ε. Τρικάλων,Π.Ε. Τρικάλων,Trikala,Τρικάλων,Κεντρική Πλατεία Τρικάλων,301,0,0,0,0,0.0,39.5560744,21.7679819
EL134,01/02/21,Π.Ε. Φλώρινας,Π.Ε. Φλώρινας,Florina,Φλώρινας,Μελίτης,76,0,0,0,0,0.0,40.83,21.581667
EL125,01/02/21,Π.Ε. Πιερίας,Π.Ε. Πιερίας,Pieria,Πιερίας,Ανδρομάχη,35,0,0,0,0,0.0,40.272567,22.4801249
EL132,01/02/21,Π.Ε. Καστοριάς,Π.Ε. Καστοριάς,Kastoria,Καστοριάς,Καστοριά,29,0,0,0,0,0.0,40.5192691,21.2687171
EL111,01/02/21,Π.Ε. Έβρου,Π.Ε. Έβρου,Evros,Έβρου,Δημοτικό Θέατρο Αλεξανδρούπολης,7,0,0,0,0,0.0,40.8452986,25.8745361
EL143,01/02/21,Π.Ε. Σποράδων,Ν. Μαγνησίας,Magnesia,Σποράδων,Σκιάθος,40,0,0,0,0,0.0,39.16352,23.4901667
EL141,01/02/21,Π.Ε. Καρδίτσας,Π.Ε. Καρδίτσας,Karditsa,Καρδίτσας,Δήμος Σοφάδων,48,0,0,0,0,0.0,39.335659,22.097651
EL141,01/02/21,Π.Ε. Καρδίτσας,Π.Ε. Καρδίτσας,Karditsa,Καρδίτσας,Δήμος Καρδίτσας,197,2,1,1,52,1.0,39.2833713,21.9045541
EL142,01/02/21,Π.Ε. Λάρισας,Π.Ε. Λαρίσης,Larissa,Λάρισας,Αμπελώνας,67,0,0,0,0,0.0,39.7451063,22.3615771
EL142,01/02/21,Π.Ε. Λάρισας,Π.Ε. Λαρίσης,Larissa,Λάρισας,Δήμητρα Αγιάς,93,0,0,0,0,0.0,39.6881925,22.6316144
EL421,01/02/21,Π.Ε. Ρόδου,Ν. Δωδεκανήσου,Dodecanese,Ρόδου,Πλατεία Πύρρου,62,0,0,0,0,0.0,37.9571746,23.7004796
EL144,01/02/21,Π.Ε. Τρικάλων,Π.Ε. Τρικάλων,Trikala,Τρικάλων,Παλαιά Ζωαγορά,112,0,0,0,0,0.0,38.2215002,21.7210082
EL231,01/02/21,Π.Ε. Αιτωλοακαρνανίας,Π.Ε. Αιτωλοακαρνανίας,Aetolia-Acarnania,Αιτωλοακαρνανίας,Μεσολόγγι,21,0,0,0,0,0.0,38.3686739,21.430415
EL222,01/02/21,Π.Ε. Κέρκυρας,Π.Ε. Κέρκυρας,Corfu (Kerkyra),Κέρκυρας,Δημοτικό Θέατρο,67,0,0,0,0,0.0,37.9433016,23.6468891
EL421,01/02/21,Π.Ε. Κω,Ν. Δωδεκανήσου,Dodecanese,Κω,Επαρχείο,87,0,0,0,0,0.0,36.8950087,27.2914734
EL422,01/02/21,Π.Ε. Σύρου,Ν. Κυκλάδων,Cyclades,Σύρου,Ερμούπολη,60,1,1,1,47,1.7,37.4418105,24.9404242
EL254,01/02/21,Π.Ε. Λακωνίας,Π.Ε. Λακωνίας,Laconia,Λακωνίας,Λευκόχωμα,66,3,2,0,36,4.5,36.9774259,22.5117764
EL255,01/02/21,Π.Ε. Μεσσηνίας,Π.Ε. Μεσσηνίας,Messenia,Μεσσηνίας,Μέγαρο Χορού,130,0,0,0,0,0.0,37.0366,22.1144
EL300,02/02/21,Π.Ε. Κεντρικού Τομέα Αθηνών,Περιφέρεια Αττικής,Attica,Κεντρικού Τομέα Αθηνών,Σταθμός Μετρό «Σύνταγμα»,416,6,4,2,48,1.4,37.9745068,23.7352651
EL300,02/02/21,Π.Ε. Κεντρικού Τομέα Αθηνών,Περιφέρεια Αττικής,Attica,Κεντρικού Τομέα Αθηνών,Δήμος Αθηναίων-Πλατεία Σεπόλια,664,2,2,0,55,0.3,37.98189,23.7273379
EL300,02/02/21,Π.Ε. Κεντρικού Τομέα Αθηνών,Περιφέρεια Αττικής,Attica,Κεντρικού Τομέα Αθηνών,Δήμος Αθηναίων-Πλατεία Κυψέλης,498,12,8,4,42,2.4,37.9989477,23.7384307
EL300,02/02/21,Π.Ε. Δυτικού Τομέα Αθηνών,Περιφέρεια Αττικής,Attica,Δυτικού Τομέα Αθηνών,Super Market Σκλαβενίτης Χαϊδαρίου,174,2,0,2,61,1.1,38.0128481,23.6599983
EL122,02/02/21,Π.Ε. Θεσσαλονίκης,Π.Ε. Θεσσαλονίκης,Thessaloniki,Θεσσαλονίκης,Δήμος Αμπελοκήπων,252,6,3,3,42,2.4,40.6513195,22.8880068
EL122,02/02/21,Π.Ε. Θεσσαλονίκης,Π.Ε. Θεσσαλονίκης,Thessaloniki,Θεσσαλονίκης,Δήμος Θέρμης,221,0,0,0,0,0.0,40.4727724,23.0726807
EL122,02/02/21,Π.Ε. Θεσσαλονίκης,Π.Ε. Θεσσαλονίκης,Thessaloniki,Θεσσαλονίκης,Πλατεία Εύοσμου,266,2,1,1,42,0.8,40.6681964,22.9110378
EL122,02/02/21,Π.Ε. Θεσσαλονίκης,Π.Ε. Θεσσαλονίκης,Thessaloniki,Θεσσαλονίκης,Δήμος Νεάπολης-Συκεών,299,0,0,0,0,0.0,40.643515,22.971413
EL252,02/02/21,Π.Ε. Αρκαδίας,Π.Ε. Αρκαδίας,Arcadia,Αρκαδίας,Περιοχή Μελιγού,119,0,0,0,0,0.0,37.3583923,22.6576019
EL252,02/02/21,Π.Ε. Αρκαδίας,Π.Ε. Αρκαδίας,Arcadia,Αρκαδίας,Πλατεία Καρτσιώτη Άστρους,56,0,0,0,0,0.0,37.405714,22.7209654
EL421,02/02/21,Π.Ε. Κω,Ν. Δωδεκανήσου,Dodecanese,Κω,Επαρχείο,109,0,0,0,0,0.0,36.8950087,27.2914734
EL421,02/02/21,Π.Ε. Κω,Ν. Δωδεκανήσου,Dodecanese,Κω,Δημαρχείο Κω,105,0,0,0,0,0.0,36.8943408,27.2889736
EL232,02/02/21,Π.Ε. Αχαΐας,Π.Ε. Αχαΐας,Achaea,Αχαΐας,Κοινοτικό Γραφείο Ριόλου,160,5,4,1,44,3.1,38.1444783,21.5569222
EL232,02/02/21,Π.Ε. Αχαΐας,Π.Ε. Αχαΐας,Achaea,Αχαΐας,Κοινοτικό Γραφείο Φαρραί,84,2,0,2,36,2.4,38.0911272,21.7164036
EL232,02/02/21,Π.Ε. Αχαΐας,Π.Ε. Αχαΐας,Achaea,Αχαΐας,Δημαρχείο Δήμου Ερύμανθου,92,9,6,3,46,9.8,38.1088973,21.783809
EL432,02/02/21,Π.Ε. Λασιθίου,Π.Ε. Λασιθίου,Lasithi,Λασιθίου,Άγιος Νικόλαος,639,7,2,5,37,1.1,35.1899597,25.7164166
EL421,02/02/21,Π.Ε. Ρόδου,Ν. Δωδεκανήσου,Dodecanese,Ρόδου,Μανδράκι,64,0,0,0,0,0.0,37.3525794,23.4829979
EL233,02/02/21,Π.Ε. Ηλείας,Π.Ε. Ηλείας,Elis,Ηλείας,Αρχαία Ολυμπία,50,0,0,0,0,0.0,37.64466,21.6254797
EL134,02/02/21,Π.Ε. Φλώρινας,Π.Ε. Φλώρινας,Florina,Φλώρινας,Ν. Καύκασος,17,0,0,0,0,0.0,42.6366153,44.157621
EL141,02/02/21,Π.Ε. Καρδίτσας,Π.Ε. Καρδίτσας,Karditsa,Καρδίτσας,Δήμος Καρδίτσας,253,0,0,0,0,0.0,39.2833713,21.9045541
EL222,02/02/21,Π.Ε. Κέρκυρας,Π.Ε. Κέρκυρας,Corfu (Kerkyra),Κέρκυρας,Δημοτικό Θέατρο,12,0,0,0,0,0.0,37.9433016,23.6468891
EL142,02/02/21,Π.Ε. Λάρισας,Π.Ε. Λαρίσης,Larissa,Λάρισας,Πλατεία Νεράιδας,114,0,0,0,0,0.0,37.9632023,23.6543593
EL142,02/02/21,Π.Ε. Λάρισας,Π.Ε. Λαρίσης,Larissa,Λάρισας,Σκεπαστή Αγορά Νεάπολης,176,1,1,0,72,0.6,39.6189242,22.4028242
EL142,02/02/21,Π.Ε. Λάρισας,Π.Ε. Λαρίσης,Larissa,Λάρισας,Φάρσαλα,89,0,0,0,0,0.0,39.295635,22.384495
EL211,02/02/21,Π.Ε. Άρτας,Π.Ε. Άρτας,Arta,Άρτας,Πλατεία Αγ. Δημητρίου,41,0,0,0,0,0.0,37.9890508,23.7589823
EL114,02/02/21,Π.Ε. Δράμας,Π.Ε. Δράμας,Drama,Δράμας,Δράμα,60,0,0,0,0,0.0,41.1502273,24.1469489
EL125,02/02/21,Π.Ε. Πιερίας,Π.Ε. Πιερίας,Pieria,Πιερίας,Λιτόχωρο,29,2,2,0,33,6.9,40.1029473,22.5026117
EL125,02/02/21,Π.Ε. Πιερίας,Π.Ε. Πιερίας,Pieria,Πιερίας,Ανδρομάχη,48,0,0,0,0,0.0,40.272567,22.4801249
EL224,02/02/21,Π.Ε. Λευκάδας,Π.Ε. Λευκάδας,Lefkada,Λευκάδας,Λευκάδα,15,0,0,0,0,0.0,38.7066464,20.64073
EL231,02/02/21,Π.Ε. Αιτωλοακαρνανίας,Π.Ε. Αιτωλοακαρνανίας,Aetolia-Acarnania,Αιτωλοακαρνανίας,Κοινότητα Αγίου Ηλία,55,1,0,1,54,1.8,37.8619567,21.6470841
EL143,02/02/21,Π.Ε. Μαγνησίας,Ν. Μαγνησίας,Magnesia,Μαγνησίας,Κανάλια,96,0,0,0,0,0.0,39.5001721,22.8859196
EL253,02/02/21,Π.Ε. Κορινθίας,Π.Ε. Κορινθίας,Corinthia,Κορινθίας,Δερβένι,158,0,0,0,0,0.0,38.1308863,22.4122809
EL253,02/02/21,Π.Ε. Κορινθίας,Π.Ε. Κορινθίας,Corinthia,Κορινθίας,Νεμέα,64,0,0,0,0,0.0,37.82133,22.660998
EL412,02/02/21,Π.Ε. Ικαρίας,Ν. Σάμου,Samos,Ικαρίας,Ράχες,37,0,0,0,0,0.0,38.8906036,22.7810269
EL112,02/02/21,Π.Ε. Ξάνθης,Π.Ε. Ξάνθης,Xanthi,Ξάνθης,Ξάνθη,59,4,3,1,41,6.8,41.1362513,24.8877024
EL241,02/02/21,Π.Ε. Βοιωτίας,Π.Ε. Βοιωτίας,Boeotia,Βοιωτίας,Πλατεία Μαυροματίου,45,0,0,0,0,0.0,38.3707178,26.1357836
EL132,02/02/21,Π.Ε. Καστοριάς,Π.Ε. Καστοριάς,Kastoria,Καστοριάς,Πλατεία Αγ. Νικάνορα,61,0,0,0,0,0.0,40.5348015,21.2571008
EL413,02/02/21,Π.Ε. Χίου,Ν. Δωδεκανήσου,Dodecanese,Χίου,Πλατεία Βουνακίου,82,0,0,0,0,0.0,38.3707178,26.1357836
EL251,02/02/21,Π.Ε. Αργολίδας,Π.Ε. Αργολίδας,Argolis,Αργολίδας,Ναύπλιο,84,0,0,0,0,0.0,37.5673173,22.8015531
EL300,03/02/21,Π.Ε. Κεντρικού Τομέα Αθηνών,Περιφέρεια Αττικής,Attica,Κεντρικού Τομέα Αθηνών,Σταθμός Μετρό «Σύνταγμα»,426,9,3,6,49,2.1,37.9745068,23.7352651
EL300,03/02/21,Π.Ε. Κεντρικού Τομέα Αθηνών,Περιφέρεια Αττικής,Attica,Κεντρικού Τομέα Αθηνών,Δήμος Ζωγράφου,674,4,3,1,61,0.6,37.9742153,23.7841073
EL300,03/02/21,Π.Ε. Βόρειου Τομέα Αθηνών,Περιφέρεια Αττικής,Attica,Βόρειου Τομέα Αθηνών,Super Market Σκλαβενίτης Αγίας Παρασκευής,174,0,0,0,0,0.0,38.0180231,23.8104352
EL122,03/02/21,Π.Ε. Θεσσαλονίκης,Π.Ε. Θεσσαλονίκης,Thessaloniki,Θεσσαλονίκης,Δήμος Λαγκαδά,117,1,1,0,60,0.9,40.82347,23.1441558
EL122,03/02/21,Π.Ε. Θεσσαλονίκης,Π.Ε. Θεσσαλονίκης,Thessaloniki,Θεσσαλονίκης,Δήμος Θέρμης,245,2,2,0,59,0.8,40.4727724,23.0726807
EL122,03/02/21,Π.Ε. Θεσσαλονίκης,Π.Ε. Θεσσαλονίκης,Thessaloniki,Θεσσαλονίκης,Δήμος Νεάπολης-Συκεών,535,0,0,0,0,0.0,40.643515,22.971413
EL122,03/02/21,Π.Ε. Θεσσαλονίκης,Π.Ε. Θεσσαλονίκης,Thessaloniki,Θεσσαλονίκης,Δήμος Παύλου Μελά-Πολίχνη,146,1,0,1,9,0.7,40.663158,22.9477498
EL122,03/02/21,Π.Ε. Θεσσαλονίκης,Π.Ε. Θεσσαλονίκης,Thessaloniki,Θεσσαλονίκης,Μέγαρο Μουσικής,29,0,0,0,0,0.0,,
EL421,03/02/21,Π.Ε. Κω,Ν. Δωδεκανήσου,Dodecanese,Κω,Επαρχείο,41,0,0,0,0,0.0,36.8950087,27.2914734
EL233,03/02/21,Π.Ε. Ηλείας,Π.Ε. Ηλείας,Elis,Ηλείας,Αρχαία Ολυμπία,55,0,0,0,0,0.0,37.64466,21.6254797
EL433,03/02/21,Π.Ε. Ρεθύμνου,Π.Ε. Ρεθύμνης,Rethymno,Ρεθύμνου,Κοινότητα Πυλίου,279,0,0,0,0,0.0,35.421546,24.1385852
EL132,03/02/21,Π.Ε. Καστοριάς,Π.Ε. Καστοριάς,Kastoria,Καστοριάς,Καστοριά,31,0,0,0,0,0.0,40.5192691,21.2687171
EL421,03/02/21,Π.Ε. Ρόδου,Ν. Δωδεκανήσου,Dodecanese,Ρόδου,Νέα Αγορά,42,0,0,0,0,0.0,,
EL422,03/02/21,Π.Ε. Πάρου,Ν. Κυκλάδων,Cyclades,Πάρου,Πλατεία Μαντώ Μαυρογένους Παροικιά,24,0,0,0,0,0.0,37.0855795,25.1494716
EL134,03/02/21,Π.Ε. Φλώρινας,Π.Ε. Φλώρινας,Florina,Φλώρινας,Πεδινό,9,0,0,0,0,0.0,40.910754,22.8722799
EL134,03/02/21,Π.Ε. Φλώρινας,Π.Ε. Φλώρινας,Florina,Φλώρινας,Βαλτόνερα,32,0,0,0,0,0.0,40.6368929,21.5851909
EL134,03/02/21,Π.Ε. Φλώρινας,Π.Ε. Φλώρινας,Florina,Φλώρινας,Μανιάκι,50,0,0,0,0,0.0,37.076602,21.7734778
EL127,03/02/21,Π.Ε. Χαλκιδικής,Π.Ε. Χαλκιδικής,Chalkidiki,Χαλκιδικής,Μουδανιά,108,6,5,1,57,5.6,40.2799437,23.2989944
EL113,03/02/21,Π.Ε. Ροδόπης,Π.Ε. Ροδόπης,Rhodope,Ροδόπης,Οικισμός Κοσμίου,14,0,0,0,0,0.0,41.1077966,25.4034359
EL144,03/02/21,Π.Ε. Τρικάλων,Π.Ε. Τρικάλων,Trikala,Τρικάλων,Φαρκαδόνα,78,0,0,0,0,0.0,39.5931322,22.0668864
EL124,03/02/21,Π.Ε. Πέλλας,Π.Ε. Πέλλας,Pella,Πέλλας,Άνυδρο Σκύδρας,8,0,0,0,0,0.0,40.8335769,22.2079905
EL141,03/02/21,Π.Ε. Καρδίτσας,Π.Ε. Καρδίτσας,Karditsa,Καρδίτσας,Περιφερειακός Καρδιτσομαγούλας,151,0,0,0,0,0.0,39.3915625,21.9245288
EL141,03/02/21,Π.Ε. Καρδίτσας,Π.Ε. Καρδίτσας,Karditsa,Καρδίτσας,Δήμος Καρδίτσας,223,1,0,1,49,0.4,39.2833713,21.9045541
EL141,03/02/21,Π.Ε. Καρδίτσας,Π.Ε. Καρδίτσας,Karditsa,Καρδίτσας,Δημοτική Ενότητα Σελλάνων,183,4,2,2,67,2.2,39.483333,21.9
EL143,03/02/21,Π.Ε. Μαγνησίας,Ν. Μαγνησίας,Magnesia,Μαγνησίας,Καλά Νερά,56,0,0,0,0,0.0,39.3064901,23.1190815
EL434,03/02/21,Π.Ε. Χανίων,Π.Ε. Χανίων,Chania,Χανίων,Πλατεία Δημοτικής Αγοράς,548,0,0,0,0,0.0,40.636285,22.9445828
EL255,03/02/21,Π.Ε. Μεσσηνίας,Π.Ε. Μεσσηνίας,Messenia,Μεσσηνίας,Μέγαρο Χορού,89,0,0,0,0,0.0,37.0366,22.1144
EL255,03/02/21,Π.Ε. Μεσσηνίας,Π.Ε. Μεσσηνίας,Messenia,Μεσσηνίας,Κοινοτικό Ιατρείο Θούριων,201,0,0,0,0,0.0,39.6907882,16.4722977
EL125,03/02/21,Π.Ε. Πιερίας,Π.Ε. Πιερίας,Pieria,Πιερίας,Αιγίνιο,87,3,3,0,37,3.4,40.4989376,22.5415237
EL125,03/02/21,Π.Ε. Πιερίας,Π.Ε. Πιερίας,Pieria,Πιερίας,Ανδρομάχη,71,2,1,1,42,2.8,40.272567,22.4801249
EL213,03/02/21,Π.Ε. Ιωαννίνων,Π.Ε. Ιωαννίνων,Ioannina,Ιωαννίνων,Πλατεία Πύρρου,126,0,0,0,0,0.0,39.663971,20.8525021
EL213,03/02/21,Π.Ε. Ιωαννίνων,Π.Ε. Ιωαννίνων,Ioannina,Ιωαννίνων,Πλατεία Δολιανών,86,0,0,0,0,0.0,37.4307955,22.6802213
EL142,03/02/21,Π.Ε. Λάρισας,Π.Ε. Λαρίσης,Larissa,Λάρισας,Αμπελόκηποι,144,0,0,0,0,0.0,37.9886745,23.7637517
EL142,03/02/21,Π.Ε. Λάρισας,Π.Ε. Λαρίσης,Larissa,Λάρισας,Ελασσόνα,47,0,0,0,0,0.0,39.8949802,22.1890872
EL222,03/02/21,Π.Ε. Κέρκυρας,Π.Ε. Κέρκυρας,Corfu (Kerkyra),Κέρκυρας,Δημοτικό Θέατρο,21,0,0,0,0,0.0,37.9433016,23.6468891
EL111,03/02/21,Π.Ε. Έβρου,Π.Ε. Έβρου,Evros,Έβρου,Κοινοτικό Ιατρείο Μαΐστρου,25,0,0,0,0,0.0,40.8563533,25.905814
EL241,03/02/21,Π.Ε. Βοιωτίας,Π.Ε. Βοιωτίας,Boeotia,Βοιωτίας,"Πλατεία Λεονταρίου, Αλίαρτος",57,0,0,0,0,0.0,38.3741418,23.1060007
EL411,03/02/21,Π.Ε. Λήμνου,Ν. Λέσβου,Lesbos,Λήμνου,Μύρινα,43,0,0,0,0,0.0,39.875265,25.063448
EL422,03/02/21,Π.Ε. Σύρου,Ν. Κυκλάδων,Cyclades,Σύρου,Πλατεία Μιαούλη,120,0,0,0,0,0.0,37.4447056,24.9429568
EL413,03/02/21,Π.Ε. Χίου,Ν. Δωδεκανήσου,Dodecanese,Χίου,Πλατεία Βουνακίου,83,0,0,0,0,0.0,38.3707178,26.1357836
EL412,03/02/21,Π.Ε. Ικαρίας,Ν. Σάμου,Samos,Ικαρίας,Ξυλοσύρτης,37,0,0,0,0,0.0,37.5918978,26.252602
EL300,04/02/21,Π.Ε. Κεντρικού Τομέα Αθηνών,Περιφέρεια Αττικής,Attica,Κεντρικού Τομέα Αθηνών,Σταθμός Μετρό «Σύνταγμα»,450,4,3,1,41,0.9,37.9745068,23.7352651
EL300,04/02/21,Π.Ε. Βόρειου Τομέα Αθηνών,Περιφέρεια Αττικής,Attica,Βόρειου Τομέα Αθηνών,Δήμος Νέας Ιωνίας,626,6,3,3,51,1.0,38.0392992,23.7603078
EL300,04/02/21,Π.Ε. Βόρειου Τομέα Αθηνών,Περιφέρεια Αττικής,Attica,Βόρειου Τομέα Αθηνών,Δήμος Νέας Φιλαδέλφειας,544,6,2,4,33,1.1,38.0431113,23.7424575
EL300,04/02/21,Π.Ε. Νότιου Τομέα Αθηνών,Περιφέρεια Αττικής,Attica,Νότιου Τομέα Αθηνών, Super Market My Market Ν. Σμύρνης,325,1,1,0,60,0.3,,
EL122,04/02/21,Π.Ε. Θεσσαλονίκης,Π.Ε. Θεσσαλονίκης,Thessaloniki,Θεσσαλονίκης,Δήμος Λαγκαδά,145,6,4,2,47,4.1,40.82347,23.1441558
EL122,04/02/21,Π.Ε. Θεσσαλονίκης,Π.Ε. Θεσσαλονίκης,Thessaloniki,Θεσσαλονίκης,Δήμος Καλαμαριάς,231,3,2,1,42,1.3,40.5827028,22.9530294
EL122,04/02/21,Π.Ε. Θεσσαλονίκης,Π.Ε. Θεσσαλονίκης,Thessaloniki,Θεσσαλονίκης,Πάρκο Δημοκρατίας,180,1,0,1,32,0.6,36.4438907,28.2209556
EL122,04/02/21,Π.Ε. Θεσσαλονίκης,Π.Ε. Θεσσαλονίκης,Thessaloniki,Θεσσαλονίκης,Δήμος Κορδελιού- Ευόσμου,214,5,2,3,48,2.3,40.6752414,22.911838
EL122,04/02/21,Π.Ε. Θεσσαλονίκης,Π.Ε. Θεσσαλονίκης,Thessaloniki,Θεσσαλονίκης,Δήμος Νεάπολης-Συκεών,497,5,3,2,50,1.0,40.643515,22.971413
EL421,04/02/21,Π.Ε. Κω,Ν. Δωδεκανήσου,Dodecanese,Κω,Επαρχείο,69,0,0,0,0,0.0,36.8950087,27.2914734
EL233,04/02/21,Π.Ε. Ηλείας,Π.Ε. Ηλείας,Elis,Ηλείας,Βάρδα,191,3,2,1,43,1.6,38.0315561,21.3650695
EL244,04/02/21,Π.Ε. Φθιώτιδας,Π.Ε. Φθιώτιδας,Phthiotis,Φθιώτιδας,Αταλάντη,236,1,1,0,47,0.4,38.6528663,22.998361
EL244,04/02/21,Π.Ε. Φθιώτιδας,Π.Ε. Φθιώτιδας,Phthiotis,Φθιώτιδας,Λαμία,469,5,3,2,28,1.1,38.8997323,22.4336668
EL252,04/02/21,Π.Ε. Αρκαδίας,Π.Ε. Αρκαδίας,Arcadia,Αρκαδίας,Κοινότητα Νεστάνης,85,0,0,0,0,0.0,37.6139627,22.4658672
EL252,04/02/21,Π.Ε. Αρκαδίας,Π.Ε. Αρκαδίας,Arcadia,Αρκαδίας,"Πλατεία Αγίου Βασιλείου, Τρίπολη",200,0,0,0,0,0.0,37.5101762,22.3724284
EL124,04/02/21,Π.Ε. Πέλλας,Π.Ε. Πέλλας,Pella,Πέλλας,"Πλατεία Γκόνου Γιώτα, Γιαννιτσά",172,2,1,1,16,1.2,40.7945259,22.4086202
EL124,04/02/21,Π.Ε. Πέλλας,Π.Ε. Πέλλας,Pella,Πέλλας,"Πλατεία Ελευθερίας, Έδεσσα",145,0,0,0,0,0.0,40.8005794,22.0492132
EL431,04/02/21,Π.Ε. Ηρακλείου,Π.Ε. Ηρακλείου,Herakleion,Ηρακλείου,Δ. Μαλεβιζίου,518,1,0,1,18,0.2,35.3068006,24.9754175
EL422,04/02/21,Π.Ε. Πάρου,Ν. Κυκλάδων,Cyclades,Πάρου,Παραλία Παροικιάς,19,0,0,0,0,0.0,37.0931158,25.155844
EL421,04/02/21,Π.Ε. Καρπάθου,Ν. Δωδεκανήσου,Dodecanese,Καρπάθου,Δημαρχείο Καρπάθου,216,4,2,2,40,1.9,35.5081556,27.2094272
EL421,04/02/21,Π.Ε. Ρόδου,Ν. Δωδεκανήσου,Dodecanese,Ρόδου,Μανδράκι Ρόδου,151,0,0,0,0,0.0,36.4475832,28.2247737
EL245,04/02/21,Π.Ε. Φωκίδας,Π.Ε. Φωκίδας,Phocis,Φωκίδας,Επτάλοφο,30,0,0,0,0,0.0,38.5957897,22.4944556
EL134,04/02/21,Π.Ε. Φλώρινας,Π.Ε. Φλώρινας,Florina,Φλώρινας,Πέτρες Αμύνταιου,36,0,0,0,0,0.0,40.7287313,21.6724885
EL134,04/02/21,Π.Ε. Φλώρινας,Π.Ε. Φλώρινας,Florina,Φλώρινας,Τροπαιούχος Φλώρινας,31,0,0,0,0,0.0,40.7396122,21.4415374
EL131,04/02/21,Π.Ε. Γρεβενών,Π.Ε. Γρεβενών,Grevena,Γρεβενών,Πλατεία Αιμιλιανού,79,1,1,0,60,1.3,40.0845767,21.4275136
EL133,04/02/21,Π.Ε. Κοζάνης,Π.Ε. Κοζάνης,Kozani,Κοζάνης,Κεντρική Πλατεία Κοζάνης,235,0,0,0,0,0.0,40.3008752,21.7882289
EL141,04/02/21,Π.Ε. Καρδίτσας,Π.Ε. Καρδίτσας,Karditsa,Καρδίτσας,"Δημοτική Ενότητα Μενελαΐδας, Δήμος Σοφάδων",87,0,0,0,0,0.0,39.15,22.016667
EL141,04/02/21,Π.Ε. Καρδίτσας,Π.Ε. Καρδίτσας,Karditsa,Καρδίτσας,Σαρανταπόρο Καρδίτσας,24,0,0,0,0,0.0,39.1575134,21.8309671
EL141,04/02/21,Π.Ε. Καρδίτσας,Π.Ε. Καρδίτσας,Karditsa,Καρδίτσας,Νεράιδα Καρδίτσας,9,0,0,0,0,0.0,39.1394443,21.7905378
EL141,04/02/21,Π.Ε. Καρδίτσας,Π.Ε. Καρδίτσας,Karditsa,Καρδίτσας,"Δημοτική Ενότητα Παμισου, Δήμος Μουζακίου",89,0,0,0,0,0.0,39.466667,21.85
EL141,04/02/21,Π.Ε. Καρδίτσας,Π.Ε. Καρδίτσας,Karditsa,Καρδίτσας,Δήμος Σοφάδων,193,0,0,0,0,0.0,39.335659,22.097651
EL127,04/02/21,Π.Ε. Χαλκιδικής,Π.Ε. Χαλκιδικής,Chalkidiki,Χαλκιδικής,Κοινότητα Βραστάμων,67,0,0,0,0,0.0,40.3700037,23.5372659
EL255,04/02/21,Π.Ε. Μεσσηνίας,Π.Ε. Μεσσηνίας,Messenia,Μεσσηνίας,Μέγαρο Χορού,98,0,0,0,0,0.0,37.0366,22.1144
